{
	"origen": "https://docs.google.com/spreadsheets/d/1M3-AlWkHsTZEfmpRaOPMfTwahnU8_Kme234kjbo92Yg/edit#gid=977814853",
	"creationTimeStamp": 1672621603279,
	"error": [],
	"drivers": [
		{
			"name": "Alejandro Dominguez",
			"mdd": 5683,
			"bid": "M122201",
			"status": "Active",
			"monitor": "Amaralis Aldana",
			"routesLog": "0 AM | 0 PM",
			"routes": [],
			"pass": [],
			"record": [],
			"address": {
				"formatted": "4573 s kirkman rd. orlando. 32811",
				"street": "4573 s kirkman rd",
				"state": "Florida",
				"city": "Orange",
				"zip": "",
				"location": { "lat": 28.4958249, "lng": -81.4587463 }
			}
		},
		{
			"name": "Alexander Vivas Tovar",
			"mdd": 19102,
			"bid": "M122201",
			"status": "Active",
			"monitor": "",
			"routesLog": "0 AM | 0 PM",
			"routes": [],
			"pass": [],
			"record": [],
			"address": {
				"formatted": "3010 Redwood National Dr. Orlando 32837",
				"street": "3010 Redwood National Dr.",
				"state": "Florida",
				"city": "Orlando",
				"zip": "",
				"location": { "lat": 28.3711353, "lng": -81.4230479 }
			}
		},
		{
			"name": "Alexandra Chanaba",
			"mdd": 19379,
			"bid": "M122201",
			"status": "Active",
			"monitor": "",
			"routesLog": "0 AM | 0 PM",
			"routes": [],
			"pass": [],
			"record": [],
			"address": {
				"formatted": "8214 Wesly Manor Ct. Orlando 32821",
				"street": "8214 Wesly Manor Ct.",
				"state": "Florida",
				"city": "Orlando",
				"zip": "",
				"location": { "lat": 28.3793932, "lng": -81.4927218 }
			}
		},
		{
			"name": "Alexandra Velasquez",
			"mdd": 15733,
			"bid": "M122201",
			"status": "Active",
			"monitor": "NO",
			"routesLog": "0 AM | 0 PM",
			"routes": [],
			"pass": [],
			"record": [],
			"address": {
				"formatted": "",
				"street": "",
				"state": "Florida",
				"city": "Orange",
				"zip": "",
				"location": { "lat": "", "lng": "" }
			}
		},
		{
			"name": "Alitza Sandoval",
			"mdd": 16046,
			"bid": "M122201",
			"status": "Active",
			"monitor": "",
			"routesLog": "0 AM | 0 PM",
			"routes": [],
			"pass": [],
			"record": [],
			"address": {
				"formatted": "2177 J Lawson Blvd. orlando 32824",
				"street": "2177 J Lawson Blvd.",
				"state": "Florida",
				"city": "Orange",
				"zip": "",
				"location": { "lat": 28.3708153, "lng": -81.3288488 }
			}
		},
		{
			"name": "Andreina Morales",
			"mdd": 22725,
			"bid": "M122201",
			"status": "Active",
			"monitor": "",
			"routesLog": "0 AM | 0 PM",
			"routes": [],
			"pass": [],
			"record": [],
			"address": {
				"formatted": "4613 cason cove dr 32811",
				"street": "4613 cason cove dr",
				"state": "Florida",
				"city": "Orange",
				"zip": "",
				"location": { "lat": 28.4968088, "lng": -81.4369545999999 }
			}
		},
		{
			"name": "Arancivia Salazar",
			"mdd": 18530,
			"bid": "M122201",
			"status": "Active",
			"monitor": "",
			"routesLog": "0 AM | 0 PM",
			"routes": [],
			"pass": [],
			"record": [],
			"address": {
				"formatted": "2900 Mercy Dr. Orlando 32808",
				"street": "2900 Mercy Dr.",
				"state": "Florida",
				"city": "Orlando",
				"zip": "",
				"location": { "lat": 28.5810973, "lng": -81.4323622 }
			}
		},
		{
			"name": "Augusto Bernal",
			"mdd": 14813,
			"bid": "M122201",
			"status": "Active",
			"monitor": "Clara Bernal",
			"routesLog": "0 AM | 0 PM",
			"routes": [],
			"pass": [],
			"record": [],
			"address": {
				"formatted": "13319 Glacier National Dr. Orlando 32837",
				"street": "",
				"state": "Florida",
				"city": "Orlando",
				"zip": "",
				"location": { "lat": 28.3723982, "lng": -81.4229620999999 }
			}
		},
		{
			"name": "ANGELICA NIETO",
			"mdd": 23410,
			"bid": "M122201",
			"status": "Active",
			"monitor": "",
			"routesLog": "0 AM | 0 PM",
			"routes": [],
			"pass": [],
			"record": [],
			"address": {
				"formatted": "",
				"street": "",
				"state": "",
				"city": "",
				"zip": "",
				"location": { "lat": "", "lng": "" }
			}
		},
		{
			"name": "Carlos Arias",
			"mdd": 15076,
			"bid": "M122201",
			"status": "Active",
			"monitor": "",
			"routesLog": "0 AM | 0 PM",
			"routes": [],
			"pass": [],
			"record": [],
			"address": {
				"formatted": "10249 Park row ct. 32832 lake nona",
				"street": "",
				"state": "Florida",
				"city": "Orlando",
				"zip": "",
				"location": { "lat": 28.4263091, "lng": -81.2412346999999 }
			}
		},
		{
			"name": "Carol Janer",
			"mdd": 21660,
			"bid": "M122201",
			"status": "Active",
			"monitor": "Catherine Janer",
			"routesLog": "0 AM | 0 PM",
			"routes": [],
			"pass": [],
			"record": [],
			"address": {
				"formatted": "2021 Decoronado Av. Kissimmee",
				"street": "",
				"state": "Florida",
				"city": "Orange",
				"zip": "",
				"location": { "lat": 28.3460993, "lng": -81.4245698 }
			}
		},
		{
			"name": "Claudia Vitko ",
			"mdd": 16127,
			"bid": "M122201",
			"status": "Active",
			"monitor": "Greg Vitko",
			"routesLog": "0 AM | 0 PM",
			"routes": [],
			"pass": [],
			"record": [],
			"address": {
				"formatted": "12773 Maribu Circle. Orlando 32828",
				"street": "",
				"state": "Florida",
				"city": "Orlando",
				"zip": "",
				"location": { "lat": 28.5453218, "lng": -81.1955473 }
			}
		},
		{
			"name": "Dora Correa",
			"mdd": 17907,
			"bid": "M122201",
			"status": "Active",
			"monitor": "",
			"routesLog": "0 AM | 0 PM",
			"routes": [],
			"pass": [],
			"record": [],
			"address": {
				"formatted": "3605 Conroy RD. Orlando 32839",
				"street": "",
				"state": "Florida",
				"city": "Orange",
				"zip": "",
				"location": { "lat": 28.4895695, "lng": -81.421245 }
			}
		},
		{
			"name": "Fernando Gigante",
			"mdd": 19905,
			"bid": "M122201",
			"status": "Active",
			"monitor": "",
			"routesLog": "0 AM | 0 PM",
			"routes": [],
			"pass": [],
			"record": [],
			"address": {
				"formatted": "1504 Noble Pl. Orlando 32801",
				"street": "",
				"state": "Florida",
				"city": "Orange",
				"zip": "",
				"location": { "lat": 28.5330873, "lng": -81.3609773 }
			}
		},
		{
			"name": "Francy Rodriguez",
			"mdd": 17523,
			"bid": "M122201",
			"status": "Active",
			"monitor": "",
			"routesLog": "0 AM | 0 PM",
			"routes": [],
			"pass": [],
			"record": [],
			"address": {
				"formatted": "12049 goldenstar ln. clermont, fl 34711",
				"street": "",
				"state": "Florida",
				"city": "Orange",
				"zip": "",
				"location": { "lat": 28.5223688, "lng": -81.7354763 }
			}
		},
		{
			"name": "Freddy Araujo",
			"mdd": 19275,
			"bid": "M122201",
			"status": "Active",
			"monitor": "Neysa Rodriguez",
			"routesLog": "0 AM | 0 PM",
			"routes": [],
			"pass": [],
			"record": [],
			"address": {
				"formatted": "2944 youngford St. Orlando",
				"street": "",
				"state": "Florida",
				"city": "Orange",
				"zip": "",
				"location": { "lat": 28.3510412, "lng": -81.3300786 }
			}
		},
		{
			"name": "Glenys Andrade De Pasquier",
			"mdd": 22140,
			"bid": "M122201",
			"status": "Active",
			"monitor": "",
			"routesLog": "0 AM | 0 PM",
			"routes": [],
			"pass": [],
			"record": [],
			"address": {
				"formatted": "642 Doris Ln. Altamonte Spring Orlando 32714",
				"street": "",
				"state": "Florida",
				"city": "Orlando",
				"zip": "",
				"location": { "lat": 28.6742927, "lng": -81.4216957 }
			}
		},
		{
			"name": "Gustavo Rondon",
			"mdd": 20679,
			"bid": "M122201",
			"status": "Active",
			"monitor": "SILVIA VEGA",
			"routesLog": "0 AM | 0 PM",
			"routes": [],
			"pass": [],
			"record": [],
			"address": {
				"formatted": "13378 glacier dr. orlando 32837",
				"street": "",
				"state": "Florida",
				"city": "Orange",
				"zip": "",
				"location": { "lat": 28.3675319, "lng": -81.4169093 }
			}
		},
		{
			"name": "Gustavo Loza",
			"mdd": 22691,
			"bid": "M122201",
			"status": "Active",
			"monitor": "",
			"routesLog": "0 AM | 0 PM",
			"routes": [],
			"pass": [],
			"record": [],
			"address": {
				"formatted": "8136 WOOD SAGE DR WINTER GARDEN FL 34787",
				"street": "",
				"state": "Florida",
				"city": "Orange",
				"zip": "",
				"location": { "lat": 28.4501763, "lng": -81.6187281999999 }
			}
		},
		{
			"name": "Hugo Rodriguez",
			"mdd": 18558,
			"bid": "M122201",
			"status": "Active",
			"monitor": "",
			"routesLog": "0 AM | 0 PM",
			"routes": [],
			"pass": [],
			"record": [],
			"address": {
				"formatted": "1700 Woodbury Rd. Orlando 32828",
				"street": "",
				"state": "Florida",
				"city": "Orange",
				"zip": "",
				"location": { "lat": 28.563009, "lng": -81.1952093 }
			}
		},
		{
			"name": "Imaru Nava",
			"mdd": 21864,
			"bid": "M122201",
			"status": "Active",
			"monitor": "",
			"routesLog": "0 AM | 0 PM",
			"routes": [],
			"pass": [],
			"record": [],
			"address": {
				"formatted": "8979 HILDRETH AVE ORLANDO  FL 32832",
				"street": "",
				"state": "Florida",
				"city": "Orange",
				"zip": "",
				"location": { "lat": 28.4361783, "lng": -81.2328359 }
			}
		},
		{
			"name": "Isaubir Lyra",
			"mdd": 17008,
			"bid": "M122201",
			"status": "Active",
			"monitor": "Luz Pulecio",
			"routesLog": "0 AM | 0 PM",
			"routes": [],
			"pass": [],
			"record": [],
			"address": {
				"formatted": "4945 soft rush St. Orlando 32811",
				"street": "",
				"state": "Florida",
				"city": "Orlando",
				"zip": "",
				"location": { "lat": 28.4887272, "lng": -81.4469752 }
			}
		},
		{
			"name": "Jaime Tortolero",
			"mdd": 16819,
			"bid": "M122201",
			"status": "Active",
			"monitor": "",
			"routesLog": "0 AM | 0 PM",
			"routes": [],
			"pass": [],
			"record": [],
			"address": {
				"formatted": "7137 Altis Way. Orlando 32836",
				"street": "",
				"state": "Florida",
				"city": "Orlando",
				"zip": "",
				"location": { "lat": 28.4077701, "lng": -81.4794527 }
			}
		},
		{
			"name": "Jenny Finol",
			"mdd": 9716,
			"bid": "M122201",
			"status": "Active",
			"monitor": "NO",
			"routesLog": "0 AM | 0 PM",
			"routes": [],
			"pass": [],
			"record": [],
			"address": {
				"formatted": "",
				"street": "",
				"state": "Florida",
				"city": "Orlando",
				"zip": "",
				"location": { "lat": "", "lng": "" }
			}
		},
		{
			"name": "Jose Lopez",
			"mdd": 21411,
			"bid": "M122201",
			"status": "Active",
			"monitor": "",
			"routesLog": "0 AM | 0 PM",
			"routes": [],
			"pass": [],
			"record": [],
			"address": {
				"formatted": "6722 Grace Hammock Rd. Harmony 34773",
				"street": "",
				"state": "Florida",
				"city": "Orange",
				"zip": "",
				"location": { "lat": 28.215433, "lng": -81.169636 }
			}
		},
		{
			"name": "Jose Manuel Salazar",
			"mdd": 19329,
			"bid": "M122201",
			"status": "Active",
			"monitor": "Marifer Bonilla",
			"routesLog": "0 AM | 0 PM",
			"routes": [],
			"pass": [],
			"record": [],
			"address": {
				"formatted": "",
				"street": "",
				"state": "Florida",
				"city": "Orange",
				"zip": "",
				"location": { "lat": "", "lng": "" }
			}
		},
		{
			"name": "Juan Pablo Pasquier",
			"mdd": 20135,
			"bid": "M122201",
			"status": "Active",
			"monitor": "",
			"routesLog": "0 AM | 0 PM",
			"routes": [],
			"pass": [],
			"record": [],
			"address": {
				"formatted": "642 Doris Ln. Altamonte Spring Orlando 32714",
				"street": "",
				"state": "Florida",
				"city": "Orange",
				"zip": "",
				"location": { "lat": 28.6742927, "lng": -81.4216957 }
			}
		},
		{
			"name": "Justo Medina",
			"mdd": 18531,
			"bid": "M122201",
			"status": "Active",
			"monitor": "",
			"routesLog": "0 AM | 0 PM",
			"routes": [],
			"pass": [],
			"record": [],
			"address": {
				"formatted": "1318 Mill Creek Pl. Kissimmee 34744",
				"street": "",
				"state": "Florida",
				"city": "Orange",
				"zip": "",
				"location": { "lat": 28.3182013, "lng": -81.3900953 }
			}
		},
		{
			"name": "Karla Primitivo",
			"mdd": 17351,
			"bid": "M122201",
			"status": "Active",
			"monitor": "",
			"routesLog": "0 AM | 0 PM",
			"routes": [],
			"pass": [],
			"record": [],
			"address": {
				"formatted": "5182 millenia bvld ",
				"street": "",
				"state": "Florida",
				"city": "Orange",
				"zip": "",
				"location": { "lat": 28.4774643, "lng": -81.4403021 }
			}
		},
		{
			"name": "Kathyna Arrieta",
			"mdd": 9734,
			"bid": "M122201",
			"status": "Active",
			"monitor": "",
			"routesLog": "0 AM | 0 PM",
			"routes": [],
			"pass": [],
			"record": [],
			"address": {
				"formatted": "2526 citrus club Ln, orlando 32839",
				"street": "",
				"state": "Florida",
				"city": "Orange",
				"zip": "",
				"location": { "lat": 28.49863, "lng": -81.411228 }
			}
		},
		{
			"name": "Kenya Rondon",
			"mdd": 20678,
			"bid": "M122201",
			"status": "Active",
			"monitor": "Yes but not defined",
			"routesLog": "0 AM | 0 PM",
			"routes": [],
			"pass": [],
			"record": [],
			"address": {
				"formatted": "13500 Turtle Marsh Loop. Orlando 32837",
				"street": "",
				"state": "Florida",
				"city": "Orange",
				"zip": "",
				"location": { "lat": 28.3668076, "lng": -81.4068858 }
			}
		},
		{
			"name": "Loluimar Valera",
			"mdd": 16075,
			"bid": "M122201",
			"status": "Active",
			"monitor": "",
			"routesLog": "0 AM | 0 PM",
			"routes": [],
			"pass": [],
			"record": [],
			"address": {
				"formatted": "4956 cason cove dr.",
				"street": "",
				"state": "Florida",
				"city": "Orange",
				"zip": "",
				"location": { "lat": 28.4991404, "lng": -81.4435058999999 }
			}
		},
		{
			"name": "Luis Valera",
			"mdd": 17364,
			"bid": "M122201",
			"status": "Active",
			"monitor": "Thisba Valdez",
			"routesLog": "0 AM | 0 PM",
			"routes": [],
			"pass": [],
			"record": [],
			"address": {
				"formatted": "4956 Cason Cove Dr. orlando 32811",
				"street": "",
				"state": "Florida",
				"city": "Orange",
				"zip": "",
				"location": { "lat": 28.4991404, "lng": -81.4435058999999 }
			}
		},
		{
			"name": "Luisa Rivas",
			"mdd": 16279,
			"bid": "M122201",
			"status": "Active",
			"monitor": "",
			"routesLog": "0 AM | 0 PM",
			"routes": [],
			"pass": [],
			"record": [],
			"address": {
				"formatted": "13240 Glacier National Dr. Orlando 32837",
				"street": "",
				"state": "Florida",
				"city": "Orange",
				"zip": "",
				"location": { "lat": 28.3714031, "lng": -81.4244215 }
			}
		},
		{
			"name": "Magdalena Lawrence",
			"mdd": 16316,
			"bid": "M122201",
			"status": "Active",
			"monitor": "NO",
			"routesLog": "0 AM | 0 PM",
			"routes": [],
			"pass": [],
			"record": [],
			"address": {
				"formatted": "",
				"street": "",
				"state": "Florida",
				"city": "Orange",
				"zip": "",
				"location": { "lat": "", "lng": "" }
			}
		},
		{
			"name": "Marcela Ortiz",
			"mdd": 18803,
			"bid": "M122201",
			"status": "Active",
			"monitor": "",
			"routesLog": "0 AM | 0 PM",
			"routes": [],
			"pass": [],
			"record": [],
			"address": {
				"formatted": "10800 Glen Cove Cir. orlando 32832",
				"street": "",
				"state": "Florida",
				"city": "Orange",
				"zip": "",
				"location": { "lat": 28.6010255, "lng": -81.2301542 }
			}
		},
		{
			"name": "Maria Balza",
			"mdd": 18556,
			"bid": "M122201",
			"status": "Active",
			"monitor": "NO",
			"routesLog": "0 AM | 0 PM",
			"routes": [],
			"pass": [],
			"record": [],
			"address": {
				"formatted": "",
				"street": "",
				"state": "Florida",
				"city": "Orange",
				"zip": "",
				"location": { "lat": "", "lng": "" }
			}
		},
		{
			"name": "Maria Perozo",
			"mdd": 17352,
			"bid": "M122201",
			"status": "Active",
			"monitor": "",
			"routesLog": "0 AM | 0 PM",
			"routes": [],
			"pass": [],
			"record": [],
			"address": {
				"formatted": "3098 Getty Way, Orlando Fl,",
				"street": "",
				"state": "Florida",
				"city": "Orange",
				"zip": "",
				"location": { "lat": 28.5103044, "lng": -81.4715384 }
			}
		},
		{
			"name": "Mariela Rotandoro",
			"mdd": 19098,
			"bid": "M122201",
			"status": "Active",
			"monitor": "Isabel Gomez",
			"routesLog": "0 AM | 0 PM",
			"routes": [],
			"pass": [],
			"record": [],
			"address": {
				"formatted": "3725 Castle Pines Ln. Orlando 32822",
				"street": "",
				"state": "Florida",
				"city": "Orange",
				"zip": "",
				"location": { "lat": 28.4793445, "lng": -81.4213309 }
			}
		},
		{
			"name": "Mario Baratto",
			"mdd": 17894,
			"bid": "M122201",
			"status": "Active",
			"monitor": "",
			"routesLog": "0 AM | 0 PM",
			"routes": [],
			"pass": [],
			"record": [],
			"address": {
				"formatted": "4042 Middlebrook Rd. Orlando 32811",
				"street": "",
				"state": "Florida",
				"city": "Orange",
				"zip": "",
				"location": { "lat": 28.4980358, "lng": -81.4492279999999 }
			}
		},
		{
			"name": "Marisol Urbina",
			"mdd": "",
			"bid": "M122201",
			"status": "Active",
			"monitor": "",
			"routesLog": "0 AM | 0 PM",
			"routes": [],
			"pass": [],
			"record": [],
			"address": {
				"formatted": "300 SAN RAFAEL ST WINTER SPRINGS FL 32708",
				"street": "",
				"state": "Florida",
				"city": "Orange",
				"zip": "",
				"location": { "lat": 28.7025093, "lng": -81.3023958 }
			}
		},
		{
			"name": "Milangel Constantini",
			"mdd": 23688,
			"bid": "M122201",
			"status": "Active",
			"monitor": "",
			"routesLog": "0 AM | 0 PM",
			"routes": [],
			"pass": [],
			"record": [],
			"address": {
				"formatted": "6261 Bent Pine Drt. Orlando 32822",
				"street": "",
				"state": "Florida",
				"city": "Orange",
				"zip": "",
				"location": { "lat": 28.4726625, "lng": -81.3011059999999 }
			}
		},
		{
			"name": "Mireya Jurado",
			"mdd": 19582,
			"bid": "M122201",
			"status": "Active",
			"monitor": "",
			"routesLog": "0 AM | 0 PM",
			"routes": [],
			"pass": [],
			"record": [],
			"address": {
				"formatted": "6924 Longmeade Ln. Orlando 32822",
				"street": "",
				"state": "Florida",
				"city": "Orange",
				"zip": "",
				"location": { "lat": 28.4899911, "lng": -81.2951157999999 }
			}
		},
		{
			"name": "Morela Hermoso",
			"mdd": 9714,
			"bid": "M122201",
			"status": "Active",
			"monitor": "",
			"routesLog": "0 AM | 0 PM",
			"routes": [],
			"pass": [],
			"record": [],
			"address": {
				"formatted": "7350 westpoint Blvd. Orlando 32835",
				"street": "",
				"state": "Florida",
				"city": "Orange",
				"zip": "",
				"location": { "lat": 28.5164736, "lng": -81.4890388 }
			}
		},
		{
			"name": "Nelson Freitez",
			"mdd": 18947,
			"bid": "M122201",
			"status": "Active",
			"monitor": "Rumirth Freitez",
			"routesLog": "0 AM | 0 PM",
			"routes": [],
			"pass": [],
			"record": [],
			"address": {
				"formatted": "9088 Dowden Rd.",
				"street": "",
				"state": "Florida",
				"city": "Orange",
				"zip": "",
				"location": { "lat": 28.4303087, "lng": -81.2579921 }
			}
		},
		{
			"name": "Neyker Morales",
			"mdd": 20807,
			"bid": "M122201",
			"status": "Active",
			"monitor": "",
			"routesLog": "0 AM | 0 PM",
			"routes": [],
			"pass": [],
			"record": [],
			"address": {
				"formatted": "5509 Conroy Rd. Orlando 32811",
				"street": "",
				"state": "Florida",
				"city": "Orange",
				"zip": "",
				"location": { "lat": 28.4949677, "lng": -81.4551955 }
			}
		},
		{
			"name": "Norelsa Melgar",
			"mdd": "",
			"bid": "M122201",
			"status": "Active",
			"monitor": "",
			"routesLog": "0 AM | 0 PM",
			"routes": [],
			"pass": [],
			"record": [],
			"address": {
				"formatted": "9944 Grande Lakes. Orlando 32837",
				"street": "",
				"state": "Florida",
				"city": "",
				"zip": "",
				"location": { "lat": 28.4032071, "lng": -81.4284431999999 }
			}
		},
		{
			"name": "Olimar Millan",
			"mdd": 16062,
			"bid": "M122201",
			"status": "Active",
			"monitor": "",
			"routesLog": "0 AM | 0 PM",
			"routes": [],
			"pass": [],
			"record": [],
			"address": {
				"formatted": "9447 Dowden Rd. Orlando 32832",
				"street": "",
				"state": "Florida",
				"city": "Orange",
				"zip": "",
				"location": { "lat": 28.4340688, "lng": -81.2538192 }
			}
		},
		{
			"name": "Orlando Botero",
			"mdd": 14021,
			"bid": "M122201",
			"status": "Active",
			"monitor": "",
			"routesLog": "0 AM | 0 PM",
			"routes": [],
			"pass": [],
			"record": [],
			"address": {
				"formatted": "2142 West Oak Ridge Rd. Orlando 32809",
				"street": "",
				"state": "Florida",
				"city": "Orange",
				"zip": "",
				"location": { "lat": 28.4722781, "lng": -81.4088668 }
			}
		},
		{
			"name": "Pedro Ramirez",
			"mdd": 16842,
			"bid": "M122201",
			"status": "Active",
			"monitor": "",
			"routesLog": "0 AM | 0 PM",
			"routes": [],
			"pass": [],
			"record": [],
			"address": {
				"formatted": "9447 Dowden Rd, Orlando, FL 32832",
				"street": "",
				"state": "Florida",
				"city": "Orange",
				"zip": "",
				"location": { "lat": 28.4340688, "lng": -81.2538192 }
			}
		},
		{
			"name": "Rocio Rodriguez",
			"mdd": 19618,
			"bid": "M122201",
			"status": "Active",
			"monitor": "",
			"routesLog": "0 AM | 0 PM",
			"routes": [],
			"pass": [],
			"record": [],
			"address": {
				"formatted": "3800 Blue Dasher Dr, Kissimmee, FL 34744",
				"street": "",
				"state": "Florida",
				"city": "Orange",
				"zip": "",
				"location": { "lat": 28.3414448, "lng": -81.2883356 }
			}
		},
		{
			"name": "Romulo Ramirez",
			"mdd": 5659,
			"bid": "M122201",
			"status": "Active",
			"monitor": "",
			"routesLog": "0 AM | 0 PM",
			"routes": [],
			"pass": [],
			"record": [],
			"address": {
				"formatted": "14205 Falls Church Dr. orlando 32837",
				"street": "",
				"state": "Florida",
				"city": "Orange",
				"zip": "",
				"location": { "lat": 28.3599108, "lng": -81.4066915 }
			}
		},
		{
			"name": "Rosa Paredes",
			"mdd": 16773,
			"bid": "M122201",
			"status": "Active",
			"monitor": "Aura Lucena",
			"routesLog": "0 AM | 0 PM",
			"routes": [],
			"pass": [],
			"record": [],
			"address": {
				"formatted": "3338 Robert Trent Jones Dr. Orlando 32835",
				"street": "",
				"state": "Florida",
				"city": "Orange",
				"zip": "",
				"location": { "lat": 28.5057509, "lng": -81.4711094 }
			}
		},
		{
			"name": "Ruben Acuna",
			"mdd": 6436,
			"bid": "M122201",
			"status": "Active",
			"monitor": "Cecibell Gonzalez",
			"routesLog": "0 AM | 0 PM",
			"routes": [],
			"pass": [],
			"record": [],
			"address": {
				"formatted": "13728 Lagoon Isle Way. Orlando 32824",
				"street": "",
				"state": "Florida",
				"city": "Orange",
				"zip": "",
				"location": { "lat": 28.3693256, "lng": -81.3715197 }
			}
		},
		{
			"name": "Ruben D Garcia",
			"mdd": 6409,
			"bid": "M122201",
			"status": "Active",
			"monitor": "Nancy Gonzalez",
			"routesLog": "0 AM | 0 PM",
			"routes": [],
			"pass": [],
			"record": [],
			"address": {
				"formatted": "4235 Parkside Dr. Orlando 32812",
				"street": "",
				"state": "Florida",
				"city": "Orange",
				"zip": "",
				"location": { "lat": 28.4995808, "lng": -81.3317828 }
			}
		},
		{
			"name": "Soraya Socorro",
			"mdd": 21847,
			"bid": "M122201",
			"status": "Active",
			"monitor": "",
			"routesLog": "0 AM | 0 PM",
			"routes": [],
			"pass": [],
			"record": [],
			"address": {
				"formatted": "1357 Darnaby way. orlando 32824",
				"street": "",
				"state": "Florida",
				"city": "Orange",
				"zip": "",
				"location": { "lat": 28.3695817, "lng": -81.3488146999999 }
			}
		},
		{
			"name": "Vanessa Betancurth",
			"mdd": 18703,
			"bid": "M122201",
			"status": "Active",
			"monitor": "",
			"routesLog": "0 AM | 0 PM",
			"routes": [],
			"pass": [],
			"record": [],
			"address": {
				"formatted": "5712 Breskin Dr. orlando 32839",
				"street": "",
				"state": "Florida",
				"city": "Orange",
				"zip": "",
				"location": { "lat": 28.4753393, "lng": -81.4328129 }
			}
		},
		{
			"name": "Vilma Chirinos",
			"mdd": 15533,
			"bid": "M122201",
			"status": "Active",
			"monitor": "",
			"routesLog": "0 AM | 0 PM",
			"routes": [],
			"pass": [],
			"record": [],
			"address": {
				"formatted": "3937 Garden Plaza Way. Orlando 32837",
				"street": "",
				"state": "Florida",
				"city": "Orange",
				"zip": "",
				"location": { "lat": 28.3660496, "lng": -81.4214167 }
			}
		},
		{
			"name": "Yolieri Rangel",
			"mdd": 19520,
			"bid": "M122201",
			"status": "Active",
			"monitor": "NO",
			"routesLog": "0 AM | 0 PM",
			"routes": [],
			"pass": [],
			"record": [],
			"address": {
				"formatted": "",
				"street": "",
				"state": "Florida",
				"city": "Orange",
				"zip": "",
				"location": { "lat": "", "lng": "" }
			}
		},
		{
			"name": "Yolimar Hernandez",
			"mdd": 18497,
			"bid": "M122201",
			"status": "Active",
			"monitor": "NO",
			"routesLog": "0 AM | 0 PM",
			"routes": [],
			"pass": [],
			"record": [],
			"address": {
				"formatted": "",
				"street": "",
				"state": "Florida",
				"city": "Orange",
				"zip": "",
				"location": { "lat": "", "lng": "" }
			}
		},
		{
			"name": "Yulimar Albornozo",
			"mdd": 19027,
			"bid": "M122201",
			"status": "Active",
			"monitor": "",
			"routesLog": "0 AM | 0 PM",
			"routes": [],
			"pass": [],
			"record": [],
			"address": {
				"formatted": "3717 grandewood blvd",
				"street": "",
				"state": "Florida",
				"city": "Orange",
				"zip": "",
				"location": { "lat": 28.4105697, "lng": -81.4156297999999 }
			}
		},
		{
			"name": "Brittany Preston",
			"mdd": 22402,
			"bid": "M122201",
			"status": "Active",
			"monitor": "",
			"routesLog": "1 AM | 1 PM",
			"routes": [
				{
					"name": "IPS POSITIVE SUPPORTS ACADEMY 01 AM",
					"status": "Active",
					"mdd": 22402,
					"ampm": "AM",
					"days": "[M, T, W, Th, F]",
					"monitor": false,
					"passangers": "Anastazia Walker",
					"state": "Indiana",
					"city": "Indianapolis",
					"pickUp": "1899-12-30T11:56:00.000Z",
					"dropOff": "1899-12-30T12:30:00.000Z",
					"address": [
						{
							"formatted": "6067 Decatur Boulevard, Indianapolis, IN 46241",
							"location": { "lat": 39.673118, "lng": -86.3021378999999 }
						},
						{
							"formatted": "3200 East Raymond Street, Indianapolis, IN 46203",
							"location": { "lat": 39.7386706, "lng": -86.1103646999999 }
						}
					]
				},
				{
					"name": "IPS POSITIVE SUPPORTS ACADEMY 01 PM",
					"status": "Active",
					"mdd": 22402,
					"ampm": "PM",
					"days": "[M, T, W, Th, F]",
					"monitor": false,
					"passangers": "Anastazia Walker",
					"state": "Indiana",
					"city": "Indianapolis",
					"pickUp": "1899-12-30T18:00:00.000Z",
					"dropOff": "1899-12-30T18:25:00.000Z",
					"address": [
						{
							"formatted": "6067 Decatur Boulevard, Indianapolis, IN 46241",
							"location": { "lat": 39.673118, "lng": -86.3021378999999 }
						},
						{
							"formatted": "3200 East Raymond Street, Indianapolis, IN 46203",
							"location": { "lat": 39.7386706, "lng": -86.1103646999999 }
						}
					]
				}
			],
			"pass": [],
			"record": [],
			"address": {
				"formatted": "3101 Halifax Dr, Indianapolis, IN 46222",
				"street": "",
				"state": "Indiana",
				"city": "Indianapolis",
				"zip": "",
				"location": { "lat": 39.8059998, "lng": -86.2115018 }
			}
		},
		{
			"name": "Corina D Alamo",
			"mdd": 22372,
			"bid": "M122201",
			"status": "Active",
			"monitor": "",
			"routesLog": "1 AM | 1 PM",
			"routes": [
				{
					"name": "IPS SHORTRIDGE HS 01 AM",
					"status": "Active",
					"mdd": 22372,
					"ampm": "AM",
					"days": "[M, T, W, Th, F]",
					"monitor": false,
					"passangers": "Lema Hussainyar, Hawa Hussainyar",
					"state": "Indiana",
					"city": "Indianapolis",
					"pickUp": "1899-12-30T13:11:00.000Z",
					"dropOff": "1899-12-30T13:40:00.000Z",
					"address": [
						{
							"formatted": "1770 E 90th Pl, Indianapolis, IN 46240",
							"location": { "lat": 39.9187248, "lng": -86.1297211 }
						},
						{
							"formatted": "3401 North Meridian Street, Indianapolis, IN, 46208",
							"location": { "lat": 39.8181082, "lng": -86.1552244 }
						}
					]
				},
				{
					"name": "IPS SHORTRIDGE HS 01 PM",
					"status": "Active",
					"mdd": 22372,
					"ampm": "PM",
					"days": "[M, T, W, Th, F]",
					"monitor": false,
					"passangers": "Lema Hussainyar, Hawa Hussainyar",
					"state": "Indiana",
					"city": "Indianapolis",
					"pickUp": "1899-12-30T21:00:00.000Z",
					"dropOff": "1899-12-30T21:27:00.000Z",
					"address": [
						{
							"formatted": "1770 E 90th Pl, Indianapolis, IN 46240",
							"location": { "lat": 39.9187248, "lng": -86.1297211 }
						},
						{
							"formatted": "3401 North Meridian Street, Indianapolis, IN, 46208",
							"location": { "lat": 39.8181082, "lng": -86.1552244 }
						}
					]
				}
			],
			"pass": [],
			"record": [],
			"address": {
				"formatted": "975 lamplight drive, Westfield, IN 46074",
				"street": "",
				"state": "Indiana",
				"city": "Indianapolis",
				"zip": "",
				"location": { "lat": 40.0545836, "lng": -86.1405539 }
			}
		},
		{
			"name": "Greidy Gutierrez",
			"mdd": 22373,
			"bid": "M122201",
			"status": "Active",
			"monitor": "",
			"routesLog": "0 AM | 0 PM",
			"routes": [],
			"pass": [],
			"record": [],
			"address": {
				"formatted": "9749 Oak Grove Dr, Green Township, IN 46064",
				"street": "",
				"state": "Indiana",
				"city": "Indianapolis",
				"zip": "",
				"location": { "lat": 39.985412, "lng": -85.85955 }
			}
		},
		{
			"name": "Jhon Alberto García",
			"mdd": 22367,
			"bid": "M122201",
			"status": "Active",
			"monitor": "",
			"routesLog": "0 AM | 0 PM",
			"routes": [],
			"pass": [],
			"record": [],
			"address": {
				"formatted": "975 lamplight drive, Westfield, IN 46074",
				"street": "",
				"state": "Indiana",
				"city": "Indianapolis",
				"zip": "",
				"location": { "lat": 40.0545836, "lng": -86.1405539 }
			}
		},
		{
			"name": "María Sánchez",
			"mdd": 25506,
			"bid": "M122201",
			"status": "Active",
			"monitor": "",
			"routesLog": "0 AM | 0 PM",
			"routes": [],
			"pass": [],
			"record": [],
			"address": {
				"formatted": "2835 schofield ave, Indianapolis, Indiana 46218",
				"street": "",
				"state": "Indiana",
				"city": "Indianapolis",
				"zip": "",
				"location": { "lat": 39.8080646, "lng": -86.1296576 }
			}
		},
		{
			"name": "Virginia Navarro",
			"mdd": 22152,
			"bid": "M122201",
			"status": "Active",
			"monitor": "",
			"routesLog": "0 AM | 0 PM",
			"routes": [],
			"pass": [],
			"record": [],
			"address": {
				"formatted": "4059 eagle cove w Dr Indianapolis IN 46254",
				"street": "",
				"state": "Indiana",
				"city": "Indianapolis",
				"zip": "",
				"location": { "lat": 39.8281804, "lng": -86.2876088 }
			}
		},
		{
			"name": "Nixon Benitez",
			"mdd": 23098,
			"bid": "M122201",
			"status": "Active",
			"monitor": "",
			"routesLog": "2 AM | 1 PM",
			"routes": [
				{
					"name": "IN EMMA DONNAN SCHOOL 01",
					"status": "Active",
					"mdd": 23098,
					"ampm": "AM",
					"days": "[M, T, W, Th, F]",
					"monitor": false,
					"passangers": "Juwell Lockhart",
					"state": "Indiana",
					"city": "Indianapolis",
					"pickUp": "1899-12-30T11:40:00.000Z",
					"dropOff": "1899-12-30T12:00:00.000Z",
					"address": [
						{
							"formatted": "1822 Madison Village Drive #C07, Indianapolis, IN 46227",
							"location": { "lat": 39.6614444, "lng": -86.1287882 }
						},
						{
							"formatted": "1202 E Troy Ave, Indianapolis, IN 46203",
							"location": { "lat": 39.7236946, "lng": -86.1363786 }
						}
					]
				},
				{
					"name": "TSA TINDLEY SUMMIT ACADEMY 03 AM (M,T,W,Th)",
					"status": "Active",
					"mdd": 23098,
					"ampm": "AM",
					"days": "[M, T, W, Th, F]",
					"monitor": false,
					"passangers": "Roger Smith (K) (PU), Chloelle Smith (K) (PU)",
					"state": "Indiana",
					"city": "Indianapolis",
					"pickUp": "1899-12-30T12:09:00.000Z",
					"dropOff": "1899-12-30T12:30:00.000Z",
					"address": [
						{
							"formatted": "5873 Village Plaza North Drive, Indianapolis, IN 46219",
							"location": { "lat": 39.7865362, "lng": -86.0656052 }
						},
						{
							"formatted": "3698 Dubarry Road, Indianapolis, IN 46226",
							"location": { "lat": 39.820761, "lng": -86.0163549999999 }
						}
					]
				},
				{
					"name": "TSA TINDLEY SUMMIT ACADEMY 03 PM (M,T,W,Th)",
					"status": "Active",
					"mdd": 23098,
					"ampm": "PM",
					"days": "[M, T, W, Th, F]",
					"monitor": false,
					"passangers": "Roger Smith (K) (PU), Chloelle Smith (K) (PU)",
					"state": "Indiana",
					"city": "Indianapolis",
					"pickUp": "1899-12-30T21:00:00.000Z",
					"dropOff": "1899-12-30T21:20:00.000Z",
					"address": [
						{
							"formatted": "5873 Village Plaza North Drive, Indianapolis, IN 46219",
							"location": { "lat": 39.7865362, "lng": -86.0656052 }
						},
						{
							"formatted": "3698 Dubarry Road, Indianapolis, IN 46226",
							"location": { "lat": 39.820761, "lng": -86.0163549999999 }
						}
					]
				}
			],
			"pass": [],
			"record": [],
			"address": {
				"formatted": "2604 s Holt Rd, Indianapolis, IN 46241",
				"street": "",
				"state": "Indiana",
				"city": "Indianapolis",
				"zip": "",
				"location": { "lat": 39.7276826, "lng": -86.2254375 }
			}
		},
		{
			"name": "Andrea María Ortíz",
			"mdd": "",
			"bid": "M122201",
			"status": "Active",
			"monitor": "NO",
			"routesLog": "0 AM | 0 PM",
			"routes": [],
			"pass": [],
			"record": [],
			"address": {
				"formatted": "",
				"street": "",
				"state": "Pensilvania",
				"city": "Allentown",
				"zip": "",
				"location": { "lat": "", "lng": "" }
			}
		},
		{
			"name": "Eulenny Amparo",
			"mdd": 9351,
			"bid": "M122201",
			"status": "Active",
			"monitor": "",
			"routesLog": "0 AM | 0 PM",
			"routes": [],
			"pass": [],
			"record": [],
			"address": {
				"formatted": "816 s Jefferson st, Allentown, PA 18103",
				"street": "",
				"state": "Pensilvania",
				"city": "Lehigh Valley",
				"zip": "",
				"location": { "lat": 40.5912616, "lng": -75.4799677 }
			}
		},
		{
			"name": "Fausta Medina Garcia",
			"mdd": 15033,
			"bid": "M122201",
			"status": "Active",
			"monitor": "",
			"routesLog": "0 AM | 0 PM",
			"routes": [],
			"pass": [],
			"record": [],
			"address": {
				"formatted": "1055 N saint Lucas, Allentown, PA 18104",
				"street": "",
				"state": "Pensilvania",
				"city": "Lehigh Valley",
				"zip": "",
				"location": { "lat": 40.6095772, "lng": -75.5087942999999 }
			}
		},
		{
			"name": "Rafael Jorge ",
			"mdd": 21429,
			"bid": "M122201",
			"status": "Active",
			"monitor": "rjorgeros@hotmail.com\r",
			"routesLog": "0 AM | 0 PM",
			"routes": [],
			"pass": [],
			"record": [],
			"address": {
				"formatted": "442 carlton ave, Bethlehem, PA 18015",
				"street": "",
				"state": "Pensilvania",
				"city": "Lehigh Valley",
				"zip": "",
				"location": { "lat": 40.6079675999999, "lng": -75.3846081 }
			}
		},
		{
			"name": "Juan Fernandez Gutierrez",
			"mdd": 22879,
			"bid": "M122201",
			"status": "Active",
			"monitor": "",
			"routesLog": "0 AM | 0 PM",
			"routes": [],
			"pass": [],
			"record": [],
			"address": {
				"formatted": "705 n 20th st, Allentown, PA 18104",
				"street": "",
				"state": "Pensilvania",
				"city": "Lehigh Valley",
				"zip": "",
				"location": { "lat": 40.6047503, "lng": -75.5029541999999 }
			}
		},
		{
			"name": "Xiomara Amparo",
			"mdd": 18094,
			"bid": "M122201",
			"status": "Active",
			"monitor": "",
			"routesLog": "0 AM | 0 PM",
			"routes": [],
			"pass": [],
			"record": [],
			"address": {
				"formatted": "12148 Aster rd phila pa 19154.",
				"street": "",
				"state": "Pensilvania",
				"city": "Lehigh Valley",
				"zip": "",
				"location": { "lat": 40.0983131, "lng": -74.9817439 }
			}
		},
		{
			"name": "Luz Yamile Arboleda",
			"mdd": 9335,
			"bid": "M122201",
			"status": "Active",
			"monitor": "Carmen Charria",
			"routesLog": "0 AM | 0 PM",
			"routes": [],
			"pass": [],
			"record": [],
			"address": {
				"formatted": "9759 Clark st, Philadelphia, PA 19115",
				"street": "",
				"state": "Pensilvania",
				"city": "Philadelphia",
				"zip": "",
				"location": { "lat": 40.0892702, "lng": -75.0257258 }
			}
		},
		{
			"name": "Exel Mauricio Sanchez",
			"mdd": 22687,
			"bid": "M122201",
			"status": "Active",
			"monitor": "",
			"routesLog": "0 AM | 0 PM",
			"routes": [],
			"pass": [],
			"record": [],
			"address": {
				"formatted": "103 fairwood ct, Smyrna, TN 37167",
				"street": "",
				"state": "Tennessee",
				"city": "Davidson",
				"zip": "",
				"location": { "lat": 35.9787079, "lng": -86.5333012999999 }
			}
		},
		{
			"name": "Edith Roa",
			"mdd": 22085,
			"bid": "M122201",
			"status": "Active",
			"monitor": "",
			"routesLog": "0 AM | 0 PM",
			"routes": [],
			"pass": [],
			"record": [],
			"address": {
				"formatted": "1410 Robert rose Dr, Murfreesboro, TN 37129",
				"street": "",
				"state": "Tennessee",
				"city": "Davidson",
				"zip": "",
				"location": { "lat": 35.8628303, "lng": -86.4393693999999 }
			}
		},
		{
			"name": "Alcibiades Aragon",
			"mdd": 22565,
			"bid": "M122201",
			"status": "Active",
			"monitor": "",
			"routesLog": "0 AM | 0 PM",
			"routes": [],
			"pass": [],
			"record": [],
			"address": {
				"formatted": "8072 Logan Dr, LaVergne, TN 37086",
				"street": "",
				"state": "Tennessee",
				"city": "Davidson",
				"zip": "",
				"location": { "lat": 36.0283115, "lng": -86.5490285 }
			}
		},
		{
			"name": "Luz Yamile Arboleda",
			"mdd": 22136,
			"bid": "M122201",
			"status": "Active",
			"monitor": "Carmen Charria ",
			"routesLog": "0 AM | 0 PM",
			"routes": [],
			"pass": [],
			"record": [],
			"address": {
				"formatted": "1302 Zermatt Ave, Nashville, TN 37211",
				"street": "",
				"state": "Tennessee",
				"city": "Davidson",
				"zip": "",
				"location": { "lat": 36.0440821, "lng": -86.7212966 }
			}
		},
		{
			"name": "Shirley Martinez",
			"mdd": 21233,
			"bid": "M122201",
			"status": "Active",
			"monitor": "",
			"routesLog": "0 AM | 0 PM",
			"routes": [],
			"pass": [],
			"record": [],
			"address": {
				"formatted": "4049 cody dr, LaVergne, TN 37086",
				"street": "",
				"state": "Tennessee",
				"city": "Davidson",
				"zip": "",
				"location": { "lat": 36.028919, "lng": -86.550815 }
			}
		},
		{
			"name": "Sirenia Cedeno",
			"mdd": 21982,
			"bid": "M122201",
			"status": "Active",
			"monitor": "",
			"routesLog": "0 AM | 0 PM",
			"routes": [],
			"pass": [],
			"record": [],
			"address": {
				"formatted": "670 ken pilkerton drive, Smyrna,  TN 37167",
				"street": "",
				"state": "Tennessee",
				"city": "Davidson",
				"zip": "",
				"location": { "lat": 35.9642758, "lng": -86.4987879 }
			}
		},
		{
			"name": "Denis Angela Herrera",
			"mdd": 22595,
			"bid": "M122201",
			"status": "Active",
			"monitor": "",
			"routesLog": "0 AM | 0 PM",
			"routes": [],
			"pass": [],
			"record": [],
			"address": {
				"formatted": "1410 Tuffnell dr, LaVergne, TN 37086",
				"street": "",
				"state": "Tennessee",
				"city": "Davidson",
				"zip": "",
				"location": { "lat": 35.9998153, "lng": -86.5540108 }
			}
		},
		{
			"name": "Maria A Hernandez",
			"mdd": 21913,
			"bid": "M122201",
			"status": "Active",
			"monitor": "",
			"routesLog": "0 AM | 0 PM",
			"routes": [],
			"pass": [],
			"record": [],
			"address": {
				"formatted": "2104 Farmhill ct, Antioch, TN 37013",
				"street": "",
				"state": "Tennessee",
				"city": "Davidson",
				"zip": "",
				"location": { "lat": 36.056924, "lng": -86.6128181 }
			}
		},
		{
			"name": "Juan C Medina",
			"mdd": 22883,
			"bid": "M122201",
			"status": "Active",
			"monitor": "",
			"routesLog": "0 AM | 0 PM",
			"routes": [],
			"pass": [],
			"record": [],
			"address": {
				"formatted": "2104 farmhill ct, Antioch, TN 37013",
				"street": "",
				"state": "Tennessee",
				"city": "Davidson",
				"zip": "",
				"location": { "lat": 36.056924, "lng": -86.6128181 }
			}
		},
		{
			"name": "Jhon Clavijo",
			"mdd": 22813,
			"bid": "M122201",
			"status": "Active",
			"monitor": "",
			"routesLog": "0 AM | 0 PM",
			"routes": [],
			"pass": [],
			"record": [],
			"address": {
				"formatted": "1767 Frodo way, Murfreesboro, TN 37128",
				"street": "",
				"state": "Tennessee",
				"city": "Davidson",
				"zip": "",
				"location": { "lat": 35.8729781, "lng": -86.4856677 }
			}
		},
		{
			"name": "Maria Del Socorro Dominguez",
			"mdd": 22820,
			"bid": "M122201",
			"status": "Active",
			"monitor": "",
			"routesLog": "0 AM | 0 PM",
			"routes": [],
			"pass": [],
			"record": [],
			"address": {
				"formatted": "6002 Eugene dr, Smyrna, TN 37167",
				"street": "",
				"state": "Tennessee",
				"city": "Davidson",
				"zip": "",
				"location": { "lat": 35.9645342, "lng": -86.5843297 }
			}
		},
		{
			"name": "Viviana Vallejo",
			"mdd": 22688,
			"bid": "M122201",
			"status": "Active",
			"monitor": "",
			"routesLog": "0 AM | 0 PM",
			"routes": [],
			"pass": [],
			"record": [],
			"address": {
				"formatted": "500 Piccadilly row apt 64, Antioch, TN 37013",
				"street": "",
				"state": "Tennessee",
				"city": "Davidson",
				"zip": "",
				"location": { "lat": 36.0798389, "lng": -86.6607535999999 }
			}
		},
		{
			"name": "Mary J Perry",
			"mdd": 22831,
			"bid": "M122201",
			"status": "Active",
			"monitor": "",
			"routesLog": "0 AM | 0 PM",
			"routes": [],
			"pass": [],
			"record": [],
			"address": {
				"formatted": "3775 Pin Hook rd, Antioch, TN 37013",
				"street": "",
				"state": "Tennessee",
				"city": "Davidson",
				"zip": "",
				"location": { "lat": 36.0481148, "lng": -86.5939065 }
			}
		},
		{
			"name": "Juan C Casanova",
			"mdd": 21857,
			"bid": "M122201",
			"status": "Active",
			"monitor": "",
			"routesLog": "0 AM | 0 PM",
			"routes": [],
			"pass": [],
			"record": [],
			"address": {
				"formatted": "1410 robert rose dr, Murfreesboro, TN 37129",
				"street": "",
				"state": "Tennessee",
				"city": "Davidson",
				"zip": "",
				"location": { "lat": 35.8628303, "lng": -86.4393693999999 }
			}
		},
		{
			"name": "Andira Garcia",
			"mdd": 21856,
			"bid": "M122201",
			"status": "Active",
			"monitor": "",
			"routesLog": "0 AM | 0 PM",
			"routes": [],
			"pass": [],
			"record": [],
			"address": {
				"formatted": "Smyrna, TN 37167",
				"street": "",
				"state": "Tennessee",
				"city": "Davidson",
				"zip": "",
				"location": { "lat": 35.9632133, "lng": -86.5299673 }
			}
		},
		{
			"name": "Miusska Camacho",
			"mdd": 22981,
			"bid": "M122201",
			"status": "Active",
			"monitor": "",
			"routesLog": "0 AM | 0 PM",
			"routes": [],
			"pass": [],
			"record": [],
			"address": {
				"formatted": "331 Petunia dr, smyrna, TN 37167",
				"street": "",
				"state": "Tennessee",
				"city": "Davidson",
				"zip": "",
				"location": { "lat": 35.9237904, "lng": -86.5245717 }
			}
		},
		{
			"name": "Soffy Sanchez",
			"mdd": 22968,
			"bid": "M122201",
			"status": "Active",
			"monitor": "",
			"routesLog": "0 AM | 0 PM",
			"routes": [],
			"pass": [],
			"record": [],
			"address": {
				"formatted": "2070 Madison Square boulevard, LaVergne, TN 37086",
				"street": "",
				"state": "Tennessee",
				"city": "Davidson",
				"zip": "",
				"location": { "lat": 36.0226195, "lng": -86.5776095 }
			}
		},
		{
			"name": "Carla Y Gutierrez",
			"mdd": 23216,
			"bid": "M122201",
			"status": "Active",
			"monitor": "",
			"routesLog": "0 AM | 0 PM",
			"routes": [],
			"pass": [],
			"record": [],
			"address": {
				"formatted": "340 Hamburg Rd, Smyrna, TN 37167",
				"street": "",
				"state": "Tennessee",
				"city": "Davidson",
				"zip": "",
				"location": { "lat": 35.9447199, "lng": -86.5008740999999 }
			}
		},
		{
			"name": "Alexander Villalobos",
			"mdd": 21512,
			"bid": "M122201",
			"status": "Active",
			"monitor": "",
			"routesLog": "0 AM | 0 PM",
			"routes": [],
			"pass": [],
			"record": [],
			"address": {
				"formatted": "301 Prosperous lane, Smyrna, TN 37167",
				"street": "",
				"state": "Tennessee",
				"city": "Rutherford",
				"zip": "",
				"location": { "lat": 35.9579752, "lng": -86.54813 }
			}
		},
		{
			"name": "Laura De Los Angeles",
			"mdd": 21510,
			"bid": "M122201",
			"status": "Active",
			"monitor": "",
			"routesLog": "0 AM | 0 PM",
			"routes": [],
			"pass": [],
			"record": [],
			"address": {
				"formatted": "3435 H Street, philadelphia, PA 19134 ",
				"street": "",
				"state": "Pensilvania",
				"city": "Philadelphia",
				"zip": "",
				"location": { "lat": 40.0004342, "lng": -75.1122043 }
			}
		},
		{
			"name": "Massiel Xiomara Villarmarin",
			"mdd": 22538,
			"bid": "M122201",
			"status": "Active",
			"monitor": "Maria Gabriela Cruz de Navas",
			"routesLog": "0 AM | 0 PM",
			"routes": [],
			"pass": [],
			"record": [],
			"address": {
				"formatted": "12148 Aster Rd, Philadelphia, PA 19154",
				"street": "",
				"state": "Pensilvania",
				"city": "Philadelphia",
				"zip": "",
				"location": { "lat": 40.0983131, "lng": -74.9817439 }
			}
		},
		{
			"name": "Altagracia De Jesus Suárez",
			"mdd": 23086,
			"bid": "M122201",
			"status": "Active",
			"monitor": "Joan Manuel Collado Garcia ",
			"routesLog": "0 AM | 0 PM",
			"routes": [],
			"pass": [],
			"record": [],
			"address": {
				"formatted": "1231 magee ave, Philadelphia, PA 19111",
				"street": "",
				"state": "Pensilvania",
				"city": "Philadelphia",
				"zip": "",
				"location": { "lat": 40.0446044, "lng": -75.079259 }
			}
		},
		{
			"name": "Jael Pichardo",
			"mdd": 14999,
			"bid": "M122201",
			"status": "Active",
			"monitor": "Carmen Sanchez",
			"routesLog": "0 AM | 0 PM",
			"routes": [],
			"pass": [],
			"record": [],
			"address": {
				"formatted": "6113 Mulberry Street, Philadelphia,PA 19135",
				"street": "",
				"state": "Pensilvania",
				"city": "Philadelphia",
				"zip": "",
				"location": { "lat": 40.0255687999999, "lng": -75.0632021999999 }
			}
		},
		{
			"name": "Geraldine Guemaleu",
			"mdd": "",
			"bid": "M122201",
			"status": "Active",
			"monitor": "",
			"routesLog": "0 AM | 0 PM",
			"routes": [],
			"pass": [],
			"record": [],
			"address": {
				"formatted": "Pittsburgh",
				"street": "",
				"state": "Pensilvania",
				"city": "Pittsburgh",
				"zip": "",
				"location": { "lat": 40.4406247999999, "lng": -79.9958864 }
			}
		},
		{
			"name": "Cristina Mas Y Rubi",
			"mdd": 23576,
			"bid": "M122201",
			"status": "Active",
			"monitor": "",
			"routesLog": "1 AM | 1 PM",
			"routes": [
				{
					"name": "IPS GEORGE BUCK SCHOOL 94 01 AM",
					"status": "Active",
					"mdd": 23576,
					"ampm": "AM",
					"days": "[M, T, W, Th, F]",
					"monitor": false,
					"passangers": "Kaleb Knox",
					"state": "Indiana",
					"city": "Indianapolis",
					"pickUp": "1899-12-30T13:38:00.000Z",
					"dropOff": "1899-12-30T14:00:00.000Z",
					"address": [
						{
							"formatted": "10809 Spring Green Drive, Indianapolis, IN 46229",
							"location": { "lat": 39.7660324, "lng": -85.9747727 }
						},
						{
							"formatted": "2701 North Devon Avenue, Indianapolis, IN 46219",
							"location": { "lat": 39.8068864, "lng": -86.022122 }
						}
					]
				},
				{
					"name": "IPS GEORGE BUCK SCHOOL 94 01 PM",
					"status": "Active",
					"mdd": 23576,
					"ampm": "PM",
					"days": "[M, T, W, Th, F]",
					"monitor": false,
					"passangers": "Kaleb Knox",
					"state": "Indiana",
					"city": "Indianapolis",
					"pickUp": "1899-12-30T20:50:00.000Z",
					"dropOff": "1899-12-30T21:11:00.000Z",
					"address": [
						{
							"formatted": "10809 Spring Green Drive, Indianapolis, IN 46229",
							"location": { "lat": 39.7660324, "lng": -85.9747727 }
						},
						{
							"formatted": "2701 North Devon Avenue, Indianapolis, IN 46219",
							"location": { "lat": 39.8068864, "lng": -86.022122 }
						}
					]
				}
			],
			"pass": [],
			"record": [],
			"address": {
				"formatted": "8726 arbor lake ct, Indianapolis, IN 46268",
				"street": "",
				"state": "Indiana",
				"city": "Indianapolis",
				"zip": "",
				"location": { "lat": 39.914519, "lng": -86.20603 }
			}
		},
		{
			"name": "Olayinka Olasele",
			"mdd": 23545,
			"bid": "M122201",
			"status": "Active",
			"monitor": "",
			"routesLog": "0 AM | 1 PM",
			"routes": [
				{
					"name": "IN EMMA DONNAN SCHOOL 01",
					"status": "Active",
					"mdd": 23545,
					"ampm": "PM",
					"days": "[M, T, W, Th, F]",
					"monitor": false,
					"passangers": "Juwell Lockhart",
					"state": "Indiana",
					"city": "Indianapolis",
					"pickUp": "1899-12-30T19:05:00.000Z",
					"dropOff": "1899-12-30T19:23:00.000Z",
					"address": [
						{
							"formatted": "1202 E Troy Ave, Indianapolis, IN 46203",
							"location": { "lat": 39.7236946, "lng": -86.1363786 }
						},
						{
							"formatted": "1822 Madison Village Drive #C07, Indianapolis, IN 46227",
							"location": { "lat": 39.6614444, "lng": -86.1287882 }
						}
					]
				}
			],
			"pass": [],
			"record": [],
			"address": {
				"formatted": "2819 blazing star drive, Indianapolis, Indiana 46168",
				"street": "",
				"state": "Indiana",
				"city": "Indianapolis",
				"zip": "",
				"location": { "lat": 39.7215618, "lng": -86.3764387 }
			}
		},
		{
			"name": "Jesus Enrique Chacin",
			"mdd": 26128,
			"bid": "M122201",
			"status": "Active",
			"monitor": "",
			"routesLog": "1 AM | 1 PM",
			"routes": [
				{
					"name": "IPS 049 WILLIAM PENN (PK-8) 02 ",
					"status": "Active",
					"mdd": 26128,
					"ampm": "AM",
					"days": "[M, T, W, Th, F]",
					"monitor": false,
					"passangers": "Hunter Graves, Celeste Graves",
					"state": "Indiana",
					"city": "Indianapolis",
					"pickUp": "1899-12-30T11:54:00.000Z",
					"dropOff": "1899-12-30T12:20:00.000Z",
					"address": [
						{
							"formatted": "6120 Dry Den Court - Indianapolis, Indiana",
							"location": { "lat": 39.6739989, "lng": -86.261192 }
						},
						{
							"formatted": "1720 West Wilkins Street - Indianapolis, Indiana",
							"location": { "lat": 39.7543623, "lng": -86.1909885 }
						}
					]
				},
				{
					"name": "IPS 049 WILLIAM PENN (PK-8) 02 ",
					"status": "Active",
					"mdd": 26128,
					"ampm": "PM",
					"days": "[M, T, W, Th, F]",
					"monitor": false,
					"passangers": "Hunter Graves, Celeste Graves",
					"state": "Indiana",
					"city": "Indianapolis",
					"pickUp": "1899-12-30T19:15:00.000Z",
					"dropOff": "1899-12-30T19:45:00.000Z",
					"address": [
						{
							"formatted": "1720 West Wilkins Street - Indianapolis, Indiana",
							"location": { "lat": 39.7543623, "lng": -86.1909885 }
						},
						{
							"formatted": "6120 Dry Den Court - Indianapolis, Indiana",
							"location": { "lat": 39.6739989, "lng": -86.261192 }
						}
					]
				}
			],
			"pass": [],
			"record": [],
			"address": {
				"formatted": "5042 Brandywine dr, Indianapolis, Indiana 46241",
				"street": "",
				"state": "Indiana",
				"city": "Indianapolis",
				"zip": "",
				"location": { "lat": 39.7303133, "lng": -86.2471482 }
			}
		},
		{
			"name": "Ilenis Bellones",
			"mdd": 26097,
			"bid": "M122201",
			"status": "Active",
			"monitor": "",
			"routesLog": "2 AM | 2 PM",
			"routes": [
				{
					"name": "IN SCHOOL FOR THE BLIND ISBVI 01",
					"status": "Active",
					"mdd": 26097,
					"ampm": "AM",
					"days": "[M, T, W, Th, F]",
					"monitor": false,
					"passangers": "Shania Lee, Trenton Wurster",
					"state": "Indiana",
					"city": "Indianapolis",
					"pickUp": "1899-12-30T11:46:00.000Z",
					"dropOff": "1899-12-30T12:20:00.000Z",
					"address": [
						{
							"formatted": "1654 Desoto Lane Speedway Apt B, Indianapolis, IN 46224",
							"location": { "lat": 39.7892062, "lng": -86.2625331 }
						},
						{
							"formatted": "2228 Sumter Street - Indianapolis, Indiana",
							"location": { "lat": 39.7968334, "lng": -86.2522606 }
						},
						{
							"formatted": "7725 North College Avenue - Indianapolis, Indiana",
							"location": { "lat": 39.8935369999999, "lng": -86.143404 }
						}
					]
				},
				{
					"name": "IN SCHOOL FOR THE BLIND ISBVI 01",
					"status": "Active",
					"mdd": 26097,
					"ampm": "PM",
					"days": "[M, T, W, Th, F]",
					"monitor": false,
					"passangers": "Shania Lee, Trenton Wurster",
					"state": "Indiana",
					"city": "Indianapolis",
					"pickUp": "1899-12-30T20:15:00.000Z",
					"dropOff": "1899-12-30T20:48:00.000Z",
					"address": [
						{
							"formatted": "2228 Sumter Street - Indianapolis, Indiana",
							"location": { "lat": 39.7968334, "lng": -86.2522606 }
						},
						{
							"formatted": "1654 Desoto Lane Speedway Apt B, Indianapolis, IN 46224",
							"location": { "lat": 39.7892062, "lng": -86.2625331 }
						},
						{
							"formatted": "7725 North College Avenue - Indianapolis, Indiana",
							"location": { "lat": 39.8935369999999, "lng": -86.143404 }
						}
					]
				},
				{
					"name": "STOS ARTHUR C NEWBY ES 02 AM",
					"status": "Active",
					"mdd": 26097,
					"ampm": "AM",
					"days": "[M, T, W, Th, F]",
					"monitor": false,
					"passangers": "Brandon Ice",
					"state": "Indiana",
					"city": "Indianapolis",
					"pickUp": "1899-12-30T14:40:00.000Z",
					"dropOff": "1899-12-30T15:00:00.000Z",
					"address": [
						{
							"formatted": "6007 Perry Worth Road, Whitestown, IN 46075",
							"location": { "lat": 39.9533836, "lng": -86.3589418 }
						},
						{
							"formatted": "1849 North Whitcomb Avenue, Indianapolis, IN 46224",
							"location": { "lat": 39.7920191, "lng": -86.2567289999999 }
						}
					]
				},
				{
					"name": "STOS ARTHUR C NEWBY ES 02 PM",
					"status": "Active",
					"mdd": 26097,
					"ampm": "PM",
					"days": "[M, T, W, Th, F]",
					"monitor": false,
					"passangers": "Brandon Ice",
					"state": "Indiana",
					"city": "Indianapolis",
					"pickUp": "1899-12-30T18:30:00.000Z",
					"dropOff": "1899-12-30T18:58:00.000Z",
					"address": [
						{
							"formatted": "6007 Perry Worth Road, Whitestown, IN 46075",
							"location": { "lat": 39.9533836, "lng": -86.3589418 }
						},
						{
							"formatted": "1849 North Whitcomb Avenue, Indianapolis, IN 46224",
							"location": { "lat": 39.7920191, "lng": -86.2567289999999 }
						}
					]
				}
			],
			"pass": [],
			"record": [],
			"address": {
				"formatted": "5801 SHEFFIELD LANE, WHITESTOWN, Indiana 46075",
				"street": "",
				"state": "Indiana",
				"city": "Indianapolis",
				"zip": "",
				"location": { "lat": 39.964403, "lng": -86.3595529999999 }
			}
		},
		{
			"name": "Ornella Scampini",
			"mdd": 26563,
			"bid": "M122201",
			"status": "Active",
			"monitor": "",
			"routesLog": "0 AM | 0 PM",
			"routes": [],
			"pass": [],
			"record": [],
			"address": {
				"formatted": "9555 west constellation drive, Pendleton, Indiana 46064",
				"street": "",
				"state": "Indiana",
				"city": "Indianapolis",
				"zip": "",
				"location": { "lat": 39.9813568, "lng": -85.8543615 }
			}
		},
		{
			"name": "Diego Alizo",
			"mdd": 21081,
			"bid": "M122202",
			"status": "Active",
			"monitor": "",
			"routesLog": "0 AM | 0 PM",
			"routes": [],
			"pass": [],
			"record": [],
			"address": {
				"formatted": "534 orange dr Apt 14 Altamonte Springs FL 32701",
				"street": "",
				"state": "Florida",
				"city": "Orange",
				"zip": "",
				"location": { "lat": 28.6571793, "lng": -81.3748174999999 }
			}
		},
		{
			"name": "Erika Guerrero",
			"mdd": 21590,
			"bid": "M122202",
			"status": "Active",
			"monitor": "",
			"routesLog": "0 AM | 0 PM",
			"routes": [],
			"pass": [],
			"record": [],
			"address": {
				"formatted": "630 Pasadena avenue  LONGWOOD FL 32750",
				"street": "",
				"state": "Florida",
				"city": "Orange",
				"zip": "",
				"location": { "lat": 28.704528, "lng": -81.335433 }
			}
		},
		{
			"name": "Meyling Guilarte",
			"mdd": 21196,
			"bid": "M122202",
			"status": "Active",
			"monitor": "",
			"routesLog": "0 AM | 0 PM",
			"routes": [],
			"pass": [],
			"record": [],
			"address": {
				"formatted": "1573 pines end place Saint cloud 34771",
				"street": "",
				"state": "Florida",
				"city": "Orange",
				"zip": "",
				"location": { "lat": 28.305197, "lng": -81.2177804 }
			}
		},
		{
			"name": "Giovanna Mayorga",
			"mdd": 21391,
			"bid": "M122202",
			"status": "Active",
			"monitor": "",
			"routesLog": "0 AM | 0 PM",
			"routes": [],
			"pass": [],
			"record": [],
			"address": {
				"formatted": "1624 Oviedo Grove Circle Apt. 17  ORLANDO FL 32765",
				"street": "",
				"state": "Florida",
				"city": "Orange",
				"zip": "",
				"location": { "lat": 28.659138, "lng": -81.1826057 }
			}
		},
		{
			"name": "Heidi Reyes",
			"mdd": 20267,
			"bid": "M122202",
			"status": "Active",
			"monitor": "",
			"routesLog": "0 AM | 0 PM",
			"routes": [],
			"pass": [],
			"record": [],
			"address": {
				"formatted": "511 cape cod ln apt 303 ALTAMONTE SPRING FL",
				"street": "",
				"state": "Florida",
				"city": "Orange",
				"zip": "",
				"location": { "lat": 28.6705325, "lng": -81.4229262 }
			}
		},
		{
			"name": "Patricia Anaya",
			"mdd": 20511,
			"bid": "M122202",
			"status": "Active",
			"monitor": "",
			"routesLog": "0 AM | 0 PM",
			"routes": [],
			"pass": [],
			"record": [],
			"address": {
				"formatted": "6548 pershing ave ORLANDO FL 32822",
				"street": "",
				"state": "Florida",
				"city": "Orange",
				"zip": "",
				"location": { "lat": "Building 7 apto 311", "lng": "" }
			}
		},
		{
			"name": "Kassandra Jugador",
			"mdd": 20139,
			"bid": "M122202",
			"status": "Active",
			"monitor": "",
			"routesLog": "0 AM | 0 PM",
			"routes": [],
			"pass": [],
			"record": [],
			"address": {
				"formatted": "1242 Westpointe Villas Blvd apto 102 Winter Garden, 34787",
				"street": "",
				"state": "Florida",
				"city": "Orange",
				"zip": "",
				"location": { "lat": 28.5457215, "lng": -81.6056797999999 }
			}
		},
		{
			"name": "Llemile Vargas",
			"mdd": 22632,
			"bid": "M122202",
			"status": "Active",
			"monitor": "",
			"routesLog": "0 AM | 0 PM",
			"routes": [],
			"pass": [],
			"record": [],
			"address": {
				"formatted": "1929 piedmont park blvd  APOPKA FL 32703",
				"street": "",
				"state": "Florida",
				"city": "Orange",
				"zip": "",
				"location": { "lat": 28.6522167, "lng": -81.474434 }
			}
		},
		{
			"name": "Kevin Mercado",
			"mdd": 21902,
			"bid": "M122202",
			"status": "Active",
			"monitor": "",
			"routesLog": "0 AM | 0 PM",
			"routes": [],
			"pass": [],
			"record": [],
			"address": {
				"formatted": "2705 Burwood Av Orlando fl 32837",
				"street": "",
				"state": "Florida",
				"city": "Orange",
				"zip": "",
				"location": { "lat": 28.3815552, "lng": -81.4169737 }
			}
		},
		{
			"name": "Gustavo Villalobos",
			"mdd": 22858,
			"bid": "M122202",
			"status": "Active",
			"monitor": "",
			"routesLog": "0 AM | 0 PM",
			"routes": [],
			"pass": [],
			"record": [],
			"address": {
				"formatted": "534 ORANGE Dr Apt. 14, ALTAMONTE SPRING FL",
				"street": "",
				"state": "Florida",
				"city": "Orange",
				"zip": "",
				"location": { "lat": 28.6571793, "lng": -81.3748174999999 }
			}
		},
		{
			"name": "Gonzalo Restrepo ",
			"mdd": 20732,
			"bid": "M122202",
			"status": "Active",
			"monitor": "",
			"routesLog": "0 AM | 0 PM",
			"routes": [],
			"pass": [],
			"record": [],
			"address": {
				"formatted": "650 main st, ALTAMONTE SPRING FL 32701",
				"street": "",
				"state": "Florida",
				"city": "Orange",
				"zip": "",
				"location": { "lat": 28.6493714, "lng": -81.364797 }
			}
		},
		{
			"name": "Gonzalo Libano",
			"mdd": 22965,
			"bid": "M122202",
			"status": "Active",
			"monitor": "Maricela Quintero",
			"routesLog": "0 AM | 0 PM",
			"routes": [],
			"pass": [],
			"record": [],
			"address": {
				"formatted": "11800 Whispering Tree Ave, ORLANDO FL 32837",
				"street": "",
				"state": "Florida",
				"city": "Orange",
				"zip": "",
				"location": { "lat": 28.3943913, "lng": -81.4165443999999 }
			}
		},
		{
			"name": "Luz Patricia Serna",
			"mdd": 23300,
			"bid": "M122202",
			"status": "Active",
			"monitor": "",
			"routesLog": "0 AM | 0 PM",
			"routes": [],
			"pass": [],
			"record": [],
			"address": {
				"formatted": "15613 willow arbor circle, Orlando Fl 32824",
				"street": "",
				"state": "Florida",
				"city": "Orange",
				"zip": "",
				"location": { "lat": 28.3641781, "lng": -81.3618406 }
			}
		},
		{
			"name": "Yennalie Mejias",
			"mdd": 20955,
			"bid": "M122202",
			"status": "Active",
			"monitor": "",
			"routesLog": "0 AM | 0 PM",
			"routes": [],
			"pass": [],
			"record": [],
			"address": {
				"formatted": "14800 Peachtree Cove Lane,  WINTER GARDEN FL 34787",
				"street": "",
				"state": "Florida",
				"city": "Orange",
				"zip": "",
				"location": { "lat": 28.5475521, "lng": -81.6052405 }
			}
		},
		{
			"name": "Claudia Jaramillo",
			"mdd": 23248,
			"bid": "M122202",
			"status": "Active",
			"monitor": "",
			"routesLog": "0 AM | 0 PM",
			"routes": [],
			"pass": [],
			"record": [],
			"address": {
				"formatted": "12975 forestedge Cr, Orlando fl 32828",
				"street": "",
				"state": "Florida",
				"city": "Orange",
				"zip": "",
				"location": { "lat": 28.5311221, "lng": -81.1983887 }
			}
		},
		{
			"name": "Maria Isabel Neuman",
			"mdd": 20458,
			"bid": "M122202",
			"status": "Active",
			"monitor": "",
			"routesLog": "0 AM | 0 PM",
			"routes": [],
			"pass": [],
			"record": [],
			"address": {
				"formatted": "13207 Meadowlark Ln. Orlando Florida 32828",
				"street": "",
				"state": "Florida",
				"city": "Orange",
				"zip": "",
				"location": { "lat": 28.5339692, "lng": -81.191737 }
			}
		},
		{
			"name": "Juliet Coronel",
			"mdd": 20911,
			"bid": "M122202",
			"status": "Active",
			"monitor": "",
			"routesLog": "0 AM | 0 PM",
			"routes": [],
			"pass": [],
			"record": [],
			"address": {
				"formatted": "947 Vineridge Run apto. 201.  ALTAMONTE SPRING FL 32714",
				"street": "",
				"state": "Florida",
				"city": "Orange",
				"zip": "",
				"location": { "lat": 28.6542542, "lng": -81.422127 }
			}
		},
		{
			"name": "Fiorella Jimenez",
			"mdd": 23166,
			"bid": "M122202",
			"status": "Active",
			"monitor": "",
			"routesLog": "0 AM | 0 PM",
			"routes": [],
			"pass": [],
			"record": [],
			"address": {
				"formatted": "3203 Crown Jewel Court, WINTER PARK FL 32792",
				"street": "",
				"state": "Florida",
				"city": "Orange",
				"zip": "",
				"location": { "lat": 28.5839251, "lng": -81.2805815999999 }
			}
		},
		{
			"name": "Jesus Orellana",
			"mdd": 23139,
			"bid": "M122202",
			"status": "Active",
			"monitor": "",
			"routesLog": "0 AM | 0 PM",
			"routes": [],
			"pass": [],
			"record": [],
			"address": {
				"formatted": "8112 chatham manor blvd,  ORLANDO FL 32821",
				"street": "",
				"state": "Florida",
				"city": "Orange",
				"zip": "",
				"location": { "lat": 28.3780348, "lng": -81.4909115999999 }
			}
		},
		{
			"name": "Paola  Bermúdez ",
			"mdd": 22967,
			"bid": "M122202",
			"status": "Active",
			"monitor": "",
			"routesLog": "0 AM | 0 PM",
			"routes": [],
			"pass": [],
			"record": [],
			"address": {
				"formatted": "14036 fairway island dr. Apto 1521, ORLANDO FL 32837",
				"street": "",
				"state": "Florida",
				"city": "Orange",
				"zip": "",
				"location": { "lat": 28.3639496, "lng": -81.4075409 }
			}
		},
		{
			"name": "Leyna Rodriguez",
			"mdd": 23124,
			"bid": "M122202",
			"status": "Active",
			"monitor": "",
			"routesLog": "0 AM | 0 PM",
			"routes": [],
			"pass": [],
			"record": [],
			"address": {
				"formatted": "6466 Cava Alta Dr. Apt.308, Orlando Fl. 32835",
				"street": "",
				"state": "Florida",
				"city": "Orange",
				"zip": "",
				"location": { "lat": 28.5148252, "lng": -81.4693095 }
			}
		},
		{
			"name": "Lynda Roa",
			"mdd": 20113,
			"bid": "M122202",
			"status": "Active",
			"monitor": "",
			"routesLog": "0 AM | 0 PM",
			"routes": [],
			"pass": [],
			"record": [],
			"address": {
				"formatted": "12861 Gracehill Ln, WINDERMERE FL 34786",
				"street": "",
				"state": "Florida",
				"city": "Orange",
				"zip": "",
				"location": { "lat": 28.4544867, "lng": -81.57542 }
			}
		},
		{
			"name": "Jorge Bravo",
			"mdd": 22115,
			"bid": "M122202",
			"status": "Active",
			"monitor": "",
			"routesLog": "0 AM | 0 PM",
			"routes": [],
			"pass": [],
			"record": [],
			"address": {
				"formatted": "15613 willow arbor circle, Orlando Fl 32824",
				"street": "",
				"state": "Florida",
				"city": "Orange",
				"zip": "",
				"location": { "lat": 28.3641781, "lng": -81.3618406 }
			}
		},
		{
			"name": "Hernando Vila",
			"mdd": 20985,
			"bid": "M122202",
			"status": "Active",
			"monitor": "",
			"routesLog": "0 AM | 0 PM",
			"routes": [],
			"pass": [],
			"record": [],
			"address": {
				"formatted": "6151 Lake Lodge Dr. Winter Garden Fl 34787",
				"street": "",
				"state": "Florida",
				"city": "Orange",
				"zip": "",
				"location": { "lat": 28.4752639, "lng": -81.6186853999999 }
			}
		},
		{
			"name": "Ludymar Rojas",
			"mdd": 23305,
			"bid": "M122202",
			"status": "Active",
			"monitor": "",
			"routesLog": "0 AM | 0 PM",
			"routes": [],
			"pass": [],
			"record": [],
			"address": {
				"formatted": "2167 S Kirkman Rd. Orlando Florida 32811",
				"street": "",
				"state": "Florida",
				"city": "Orange",
				"zip": "",
				"location": { "lat": 28.5175698, "lng": -81.4560935 }
			}
		},
		{
			"name": "Piedad Vallejo",
			"mdd": 23224,
			"bid": "M122202",
			"status": "Active",
			"monitor": "",
			"routesLog": "0 AM | 0 PM",
			"routes": [],
			"pass": [],
			"record": [],
			"address": {
				"formatted": "814 windrose Dr, Orlando Fl 32824",
				"street": "",
				"state": "Florida",
				"city": "Orange",
				"zip": "",
				"location": { "lat": 28.3569643, "lng": -81.384813 }
			}
		},
		{
			"name": "Nathaly Dona",
			"mdd": 23171,
			"bid": "M122202",
			"status": "Active",
			"monitor": "",
			"routesLog": "0 AM | 0 PM",
			"routes": [],
			"pass": [],
			"record": [],
			"address": {
				"formatted": "2071 Dixie Belle Dr, Apt O, ZC, ORLANDO FL 32812",
				"street": "",
				"state": "Florida",
				"city": "Orange",
				"zip": "",
				"location": { "lat": 28.519215, "lng": -81.3139387 }
			}
		},
		{
			"name": "Carlos Vigoya",
			"mdd": 23318,
			"bid": "M122202",
			"status": "Active",
			"monitor": "",
			"routesLog": "0 AM | 0 PM",
			"routes": [],
			"pass": [],
			"record": [],
			"address": {
				"formatted": "2057 cypressbay blvd, kissimmee, fl, 34743",
				"street": "",
				"state": "Florida",
				"city": "Orange",
				"zip": "",
				"location": { "lat": 28.311382, "lng": -81.35934 }
			}
		},
		{
			"name": "Oddy Vivas",
			"mdd": 20114,
			"bid": "M122202",
			"status": "Active",
			"monitor": "",
			"routesLog": "0 AM | 0 PM",
			"routes": [],
			"pass": [],
			"record": [],
			"address": {
				"formatted": "1075 S Hiawassee Rd, Orlando, FL 32835",
				"street": "",
				"state": "Florida",
				"city": "Orange",
				"zip": "",
				"location": { "lat": 28.5286118, "lng": -81.4718816 }
			}
		},
		{
			"name": "Jenny Montoya ",
			"mdd": 20351,
			"bid": "M122202",
			"status": "Active",
			"monitor": "",
			"routesLog": "0 AM | 0 PM",
			"routes": [],
			"pass": [],
			"record": [],
			"address": {
				"formatted": "320 Oceanside CT Kissimmee Fl, 34743",
				"street": "",
				"state": "Florida",
				"city": "Orange",
				"zip": "",
				"location": { "lat": 28.3470592, "lng": -81.3704029 }
			}
		},
		{
			"name": "Okyma Mesa",
			"mdd": 24285,
			"bid": "M122202",
			"status": "Active",
			"monitor": "",
			"routesLog": "0 AM | 0 PM",
			"routes": [],
			"pass": [],
			"record": [],
			"address": {
				"formatted": "10200 Falcon Moss lane apt 108, Orlando, Florida, 32832",
				"street": "",
				"state": "Florida",
				"city": "Orange",
				"zip": "",
				"location": { "lat": 28.4113942, "lng": -81.2393555 }
			}
		},
		{
			"name": "Cesar Palacios Jaimes",
			"mdd": 24450,
			"bid": "M122202",
			"status": "Active",
			"monitor": "",
			"routesLog": "0 AM | 0 PM",
			"routes": [],
			"pass": [],
			"record": [],
			"address": {
				"formatted": "974 Leeward Pl apt 103,altamonte springs, Florida, 32714",
				"street": "",
				"state": "Florida",
				"city": "Orange",
				"zip": "",
				"location": { "lat": 28.6745305, "lng": -81.422472 }
			}
		},
		{
			"name": "Cesar Palacios Medina",
			"mdd": 24453,
			"bid": "M122202",
			"status": "Active",
			"monitor": "",
			"routesLog": "0 AM | 0 PM",
			"routes": [],
			"pass": [],
			"record": [],
			"address": {
				"formatted": "974 Leeward Pl apt 103,altamonte springs, Florida, 32714",
				"street": "",
				"state": "Florida",
				"city": "Orange",
				"zip": "",
				"location": { "lat": 28.6745305, "lng": -81.422472 }
			}
		},
		{
			"name": "Yamely Landaeta ",
			"mdd": 21362,
			"bid": "M122202",
			"status": "Active",
			"monitor": "",
			"routesLog": "0 AM | 0 PM",
			"routes": [],
			"pass": [],
			"record": [],
			"address": {
				"formatted": "245 river basin dr, Orlando fl 32824",
				"street": "",
				"state": "Florida",
				"city": "Orange",
				"zip": "",
				"location": { "lat": 28.3657721, "lng": -81.3681814999999 }
			}
		},
		{
			"name": "Iriana Ramirez",
			"mdd": 24044,
			"bid": "M122202",
			"status": "Active",
			"monitor": "",
			"routesLog": "0 AM | 0 PM",
			"routes": [],
			"pass": [],
			"record": [],
			"address": {
				"formatted": "15017 Island Bay Dr apt 201 orlando FL 32828",
				"street": "",
				"state": "Florida",
				"city": "Orange",
				"zip": "",
				"location": { "lat": 28.5517695, "lng": -81.1917584999999 }
			}
		},
		{
			"name": "Martha Caicedo",
			"mdd": 23363,
			"bid": "M122202",
			"status": "Active",
			"monitor": "",
			"routesLog": "0 AM | 0 PM",
			"routes": [],
			"pass": [],
			"record": [],
			"address": {
				"formatted": "4229 Shakelford Ct, Orlando, FL 32824",
				"street": "",
				"state": "Florida",
				"city": "Orange",
				"zip": "",
				"location": { "lat": 28.391038, "lng": -81.3366729999999 }
			}
		},
		{
			"name": "Mylene Bohorquez",
			"mdd": 25122,
			"bid": "M122202",
			"status": "Active",
			"monitor": "",
			"routesLog": "0 AM | 0 PM",
			"routes": [],
			"pass": [],
			"record": [],
			"address": {
				"formatted": "282 Wymore Rd,Fl, 32714",
				"street": "",
				"state": "Florida",
				"city": "Orange",
				"zip": "",
				"location": { "lat": 28.6576844, "lng": -81.3923284 }
			}
		},
		{
			"name": "Natacha Valenzuela",
			"mdd": 24209,
			"bid": "M122202",
			"status": "Active",
			"monitor": "",
			"routesLog": "0 AM | 0 PM",
			"routes": [],
			"pass": [],
			"record": [],
			"address": {
				"formatted": "2011 switch grass cir, ocoee, Fl, 34761",
				"street": "",
				"state": "Florida",
				"city": "Orange",
				"zip": "",
				"location": { "lat": 28.5889947, "lng": -81.510211 }
			}
		},
		{
			"name": "Rebeca Mendoza",
			"mdd": 25439,
			"bid": "M122202",
			"status": "Active",
			"monitor": "",
			"routesLog": "0 AM | 0 PM",
			"routes": [],
			"pass": [],
			"record": [],
			"address": {
				"formatted": "13524 turtle marsh loop apto 639, orlando, fl, 32837",
				"street": "",
				"state": "Florida",
				"city": "Orange",
				"zip": "",
				"location": { "lat": 28.3655029, "lng": -81.4063743999999 }
			}
		},
		{
			"name": "Alexandra George",
			"mdd": 25456,
			"bid": "M122202",
			"status": "Active",
			"monitor": "",
			"routesLog": "0 AM | 0 PM",
			"routes": [],
			"pass": [],
			"record": [],
			"address": {
				"formatted": "1726 Passion Vine Ln ocoee, Fl 34761",
				"street": "",
				"state": "Florida",
				"city": "Orange",
				"zip": "",
				"location": { "lat": 28.6131366, "lng": -81.5161608 }
			}
		},
		{
			"name": "Adriana Sanchez",
			"mdd": 25590,
			"bid": "M122202",
			"status": "Active",
			"monitor": "",
			"routesLog": "0 AM | 0 PM",
			"routes": [],
			"pass": [],
			"record": [],
			"address": {
				"formatted": "2861 wadeview Loop, St Cloud, Fl 34769",
				"street": "",
				"state": "Florida",
				"city": "Orange",
				"zip": "",
				"location": { "lat": 28.2361065, "lng": -81.3132724 }
			}
		},
		{
			"name": "Alvaro Tamayo",
			"mdd": 25950,
			"bid": "M122202",
			"status": "Active",
			"monitor": "",
			"routesLog": "0 AM | 0 PM",
			"routes": [],
			"pass": [],
			"record": [],
			"address": {
				"formatted": "10213 falcon moss LN bulding 14 apt 10, orlando, fl, 32832",
				"street": "",
				"state": "Florida",
				"city": "Orange",
				"zip": "",
				"location": { "lat": 28.4120249, "lng": -81.2391047999999 }
			}
		},
		{
			"name": "Carlos Mesa",
			"mdd": 25183,
			"bid": "M122202",
			"status": "Active",
			"monitor": "",
			"routesLog": "0 AM | 0 PM",
			"routes": [],
			"pass": [],
			"record": [],
			"address": {
				"formatted": "7726 SUN VISTA WAY, ORLANDO, FL 32822",
				"street": "",
				"state": "Florida",
				"city": "Orange",
				"zip": "",
				"location": { "lat": 28.4921884, "lng": -81.2820356 }
			}
		},
		{
			"name": "Liliana Carolina Uribe",
			"mdd": 25582,
			"bid": "M122202",
			"status": "Active",
			"monitor": "",
			"routesLog": "0 AM | 0 PM",
			"routes": [],
			"pass": [],
			"record": [],
			"address": {
				"formatted": "807 Windy place apto 203, altamonte sprimgs, fl, 32714",
				"street": "",
				"state": "Florida",
				"city": "Orange",
				"zip": "",
				"location": { "lat": 28.6499533, "lng": -81.4166776 }
			}
		},
		{
			"name": "Gisel Gonzalez",
			"mdd": 25846,
			"bid": "M122202",
			"status": "Active",
			"monitor": "",
			"routesLog": "0 AM | 0 PM",
			"routes": [],
			"pass": [],
			"record": [],
			"address": {
				"formatted": "7032 CARNA CT, ORLANDO, FL 32807",
				"street": "",
				"state": "Florida",
				"city": "Orange",
				"zip": "",
				"location": { "lat": 28.5458309, "lng": -81.2870026 }
			}
		},
		{
			"name": "Elmis Grajales",
			"mdd": 25220,
			"bid": "M122202",
			"status": "Active",
			"monitor": "",
			"routesLog": "0 AM | 0 PM",
			"routes": [],
			"pass": [],
			"record": [],
			"address": {
				"formatted": "7726 SUN VISTA WAY, ORLANDO, FL 32822",
				"street": "",
				"state": "Florida",
				"city": "Orange",
				"zip": "",
				"location": { "lat": 28.4921884, "lng": -81.2820356 }
			}
		},
		{
			"name": "Clement Duarte",
			"mdd": 25896,
			"bid": "M122202",
			"status": "Active",
			"monitor": "",
			"routesLog": "0 AM | 0 PM",
			"routes": [],
			"pass": [],
			"record": [],
			"address": {
				"formatted": "5747 Crowntree Lane, Orlando, Fl, 32829",
				"street": "",
				"state": "Florida",
				"city": "Orange",
				"zip": "",
				"location": { "lat": 28.4805433, "lng": -81.2490404 }
			}
		},
		{
			"name": "Carmen Zabala",
			"mdd": 26600,
			"bid": "M122202",
			"status": "Active",
			"monitor": "",
			"routesLog": "0 AM | 0 PM",
			"routes": [],
			"pass": [],
			"record": [],
			"address": {
				"formatted": "4440 Frances Ave, Sanford, fl,  32773",
				"street": "",
				"state": "Florida",
				"city": "Orange",
				"zip": "",
				"location": { "lat": 28.7426824, "lng": -81.2841644 }
			}
		},
		{
			"name": "Ricardo Hawkins",
			"mdd": "",
			"bid": "M122203",
			"status": "Active",
			"monitor": "DIANA HAWKINS",
			"routesLog": "0 AM | 0 PM",
			"routes": [],
			"pass": [],
			"record": [],
			"address": {
				"formatted": "966 pratt st, philadelphia PA 19124",
				"street": "",
				"state": "Pensilvania",
				"city": "Phyladelphia",
				"zip": "",
				"location": { "lat": 40.0297351, "lng": -75.091421 }
			}
		},
		{
			"name": "Aderlyn Acosta",
			"mdd": "",
			"bid": "M122203",
			"status": "Active",
			"monitor": "CECILIA FRIAS",
			"routesLog": "0 AM | 0 PM",
			"routes": [],
			"pass": [],
			"record": [],
			"address": {
				"formatted": "4035 n fairhill st",
				"street": "",
				"state": "Pensilvania",
				"city": "Phyladelphia",
				"zip": "",
				"location": { "lat": 40.0128929, "lng": -75.1368780999999 }
			}
		},
		{
			"name": "Joselin Almonte",
			"mdd": "",
			"bid": "M122203",
			"status": "Active",
			"monitor": "MILENA SANCHEZ",
			"routesLog": "0 AM | 0 PM",
			"routes": [],
			"pass": [],
			"record": [],
			"address": {
				"formatted": "1105 e sanger st philadelphia 19124",
				"street": "",
				"state": "Pensilvania",
				"city": "Phyladelphia",
				"zip": "",
				"location": { "lat": 40.0295735, "lng": -75.0832552 }
			}
		},
		{
			"name": "Ariel Figueroa",
			"mdd": "",
			"bid": "M122203",
			"status": "Active",
			"monitor": "",
			"routesLog": "0 AM | 0 PM",
			"routes": [],
			"pass": [],
			"record": [],
			"address": {
				"formatted": "4404 benner st philadelphia PA 19135",
				"street": "",
				"state": "Pensilvania",
				"city": "Phyladelphia",
				"zip": "",
				"location": { "lat": 40.0213386, "lng": -75.060396 }
			}
		},
		{
			"name": "Diego Acevedo",
			"mdd": "",
			"bid": "M122203",
			"status": "Active",
			"monitor": "",
			"routesLog": "0 AM | 0 PM",
			"routes": [],
			"pass": [],
			"record": [],
			"address": {
				"formatted": "7199 brant place philadelphia 19153",
				"street": "",
				"state": "Pensilvania",
				"city": "Phyladelphia",
				"zip": "",
				"location": { "lat": 39.9121054, "lng": -75.2346629 }
			}
		},
		{
			"name": "Cheyla Romero",
			"mdd": "",
			"bid": "M122203",
			"status": "Active",
			"monitor": "",
			"routesLog": "0 AM | 0 PM",
			"routes": [],
			"pass": [],
			"record": [],
			"address": {
				"formatted": "6314 cardiff st philadelphia 19149",
				"street": "",
				"state": "Pensilvania",
				"city": "Phyladelphia",
				"zip": "",
				"location": { "lat": 40.0314283, "lng": -75.0654785 }
			}
		},
		{
			"name": "Daniela Carabali",
			"mdd": "",
			"bid": "M122203",
			"status": "Active",
			"monitor": "",
			"routesLog": "0 AM | 0 PM",
			"routes": [],
			"pass": [],
			"record": [],
			"address": {
				"formatted": "12507 chilton rd philadelphia 19154",
				"street": "",
				"state": "Pensilvania",
				"city": "Phyladelphia",
				"zip": "",
				"location": { "lat": 40.1020115, "lng": -74.9746519999999 }
			}
		},
		{
			"name": "Elaine Delgado",
			"mdd": "",
			"bid": "M122203",
			"status": "Active",
			"monitor": "",
			"routesLog": "0 AM | 0 PM",
			"routes": [],
			"pass": [],
			"record": [],
			"address": {
				"formatted": "3405 vista st philadelphia 19136",
				"street": "",
				"state": "Pensilvania",
				"city": "Phyladelphia",
				"zip": "",
				"location": { "lat": 40.0407373, "lng": -75.0388104 }
			}
		},
		{
			"name": "Katty Fana",
			"mdd": "",
			"bid": "M122203",
			"status": "Active",
			"monitor": "EVA CASTRO",
			"routesLog": "0 AM | 0 PM",
			"routes": [],
			"pass": [],
			"record": [],
			"address": {
				"formatted": "239 e rockland st philadelphia 19120",
				"street": "",
				"state": "Pensilvania",
				"city": "Phyladelphia",
				"zip": "",
				"location": { "lat": 40.0243459, "lng": -75.1203216 }
			}
		},
		{
			"name": "Gloria Martinez",
			"mdd": "",
			"bid": "M122203",
			"status": "Active",
			"monitor": "",
			"routesLog": "0 AM | 0 PM",
			"routes": [],
			"pass": [],
			"record": [],
			"address": {
				"formatted": "742 cedar hill dr allentown 18109",
				"street": "",
				"state": "Pensilvania",
				"city": "Allentown",
				"zip": "",
				"location": { "lat": 40.6332432, "lng": -75.4489962999999 }
			}
		},
		{
			"name": "Evelyn Encarnacion",
			"mdd": "",
			"bid": "M122203",
			"status": "Active",
			"monitor": "",
			"routesLog": "0 AM | 0 PM",
			"routes": [],
			"pass": [],
			"record": [],
			"address": {
				"formatted": "2916 levick st philadelphia 10149",
				"street": "",
				"state": "Pensilvania",
				"city": "Phyladelphia",
				"zip": "",
				"location": { "lat": 40.0308827, "lng": -75.0625391 }
			}
		},
		{
			"name": "Karen Midence",
			"mdd": "",
			"bid": "M122203",
			"status": "Active",
			"monitor": "",
			"routesLog": "0 AM | 0 PM",
			"routes": [],
			"pass": [],
			"record": [],
			"address": {
				"formatted": "900 mickley rd whitehall 18052",
				"street": "",
				"state": "Pensilvania",
				"city": "Allentown",
				"zip": "",
				"location": { "lat": 40.6328816, "lng": -75.4906823 }
			}
		},
		{
			"name": "Sonia Espinal",
			"mdd": "",
			"bid": "M122203",
			"status": "Active",
			"monitor": "",
			"routesLog": "0 AM | 0 PM",
			"routes": [],
			"pass": [],
			"record": [],
			"address": {
				"formatted": "1038 w berwick st easton ",
				"street": "",
				"state": "Pensilvania",
				"city": "Allentown",
				"zip": "",
				"location": { "lat": 40.6776985, "lng": -75.2266889 }
			}
		},
		{
			"name": "Yeuris Galvis",
			"mdd": "",
			"bid": "M122203",
			"status": "Active",
			"monitor": "",
			"routesLog": "0 AM | 0 PM",
			"routes": [],
			"pass": [],
			"record": [],
			"address": {
				"formatted": "6408 marsden st philadelphia 19135",
				"street": "",
				"state": "Pensilvania",
				"city": "Phyladelphia",
				"zip": "",
				"location": { "lat": 40.022453, "lng": -75.0520226 }
			}
		},
		{
			"name": "Mercedes Vera",
			"mdd": "",
			"bid": "M122203",
			"status": "Active",
			"monitor": "",
			"routesLog": "0 AM | 0 PM",
			"routes": [],
			"pass": [],
			"record": [],
			"address": {
				"formatted": "2084 brill st philadelphia 19124",
				"street": "",
				"state": "Pensilvania",
				"city": "Phyladelphia",
				"zip": "",
				"location": { "lat": 40.0137874, "lng": -75.0694463999999 }
			}
		},
		{
			"name": "Runny Rock",
			"mdd": "",
			"bid": "M122203",
			"status": "Active",
			"monitor": "",
			"routesLog": "0 AM | 0 PM",
			"routes": [],
			"pass": [],
			"record": [],
			"address": {
				"formatted": "277 north view rd fleetwood PA 19522",
				"street": "",
				"state": "Pensilvania",
				"city": "Allentown",
				"zip": "",
				"location": { "lat": 40.448708, "lng": -75.858019 }
			}
		},
		{
			"name": "Lilian Saenz",
			"mdd": "",
			"bid": "M122203",
			"status": "Active",
			"monitor": "",
			"routesLog": "0 AM | 0 PM",
			"routes": [],
			"pass": [],
			"record": [],
			"address": {
				"formatted": "13610 sw 178 st miami 33177",
				"street": "",
				"state": "Florida",
				"city": "Miami",
				"zip": "",
				"location": { "lat": 25.6017862, "lng": -80.4120694 }
			}
		},
		{
			"name": "Liliana Castillo",
			"mdd": "",
			"bid": "M122203",
			"status": "Active",
			"monitor": "",
			"routesLog": "0 AM | 0 PM",
			"routes": [],
			"pass": [],
			"record": [],
			"address": {
				"formatted": "18860 nw ave hialeah 33015",
				"street": "",
				"state": "Florida",
				"city": "Miami",
				"zip": "",
				"location": { "lat": 25.9358702, "lng": -80.3268812 }
			}
		},
		{
			"name": "Juan Carlos Zuluaga ",
			"mdd": "",
			"bid": "M122203",
			"status": "Active",
			"monitor": "",
			"routesLog": "0 AM | 0 PM",
			"routes": [],
			"pass": [],
			"record": [],
			"address": {
				"formatted": "18860 nw 86th ave 3502 hialeah 33015",
				"street": "",
				"state": "Florida",
				"city": "Miami",
				"zip": "",
				"location": { "lat": 25.9446452, "lng": -80.3401159 }
			}
		},
		{
			"name": "Antonio Perez",
			"mdd": "",
			"bid": "M122203",
			"status": "Active",
			"monitor": "",
			"routesLog": "0 AM | 0 PM",
			"routes": [],
			"pass": [],
			"record": [],
			"address": {
				"formatted": "8251 sw 32nd Terrace miami 33155",
				"street": "",
				"state": "Florida",
				"city": "Miami",
				"zip": "",
				"location": { "lat": 25.7400628, "lng": -80.3290136 }
			}
		},
		{
			"name": "Carlos Jaramillo",
			"mdd": "",
			"bid": "M122203",
			"status": "Active",
			"monitor": "",
			"routesLog": "0 AM | 0 PM",
			"routes": [],
			"pass": [],
			"record": [],
			"address": {
				"formatted": "913 NW 97 AVE MIAMI 33172",
				"street": "",
				"state": "Florida",
				"city": "Miami",
				"zip": "",
				"location": { "lat": 25.7786849, "lng": -80.3509436 }
			}
		},
		{
			"name": "Florencio Del Valle ",
			"mdd": "",
			"bid": "M122203",
			"status": "Active",
			"monitor": "",
			"routesLog": "0 AM | 0 PM",
			"routes": [],
			"pass": [],
			"record": [],
			"address": {
				"formatted": "434 se 9 ct hialeah miami 33010",
				"street": "",
				"state": "Florida",
				"city": "Miami",
				"zip": "",
				"location": { "lat": 25.8188101, "lng": -80.2623835999999 }
			}
		},
		{
			"name": "Walter Cardona",
			"mdd": "",
			"bid": "M122203",
			"status": "Active",
			"monitor": "",
			"routesLog": "0 AM | 0 PM",
			"routes": [],
			"pass": [],
			"record": [],
			"address": {
				"formatted": "2660 SW 37 AVE MIAMI 33133",
				"street": "",
				"state": "Florida",
				"city": "Miami",
				"zip": "",
				"location": { "lat": 25.7417616, "lng": -80.2545655999999 }
			}
		},
		{
			"name": "Jennifer Negron",
			"mdd": "",
			"bid": "M122203",
			"status": "Active",
			"monitor": "",
			"routesLog": "0 AM | 0 PM",
			"routes": [],
			"pass": [],
			"record": [],
			"address": {
				"formatted": "6710 NW MONOCO CT , PORT SAINT LUCIE 34983",
				"street": "",
				"state": "Florida",
				"city": "",
				"zip": "",
				"location": { "lat": 27.3680792, "lng": -80.3777861 }
			}
		},
		{
			"name": "Milagros Del Carpio",
			"mdd": "",
			"bid": "M122203",
			"status": "Active",
			"monitor": "",
			"routesLog": "0 AM | 0 PM",
			"routes": [],
			"pass": [],
			"record": [],
			"address": {
				"formatted": "",
				"street": "",
				"state": "Florida",
				"city": "",
				"zip": "",
				"location": { "lat": "", "lng": "" }
			}
		},
		{
			"name": "Stefanny Raspiño",
			"mdd": "",
			"bid": "M122203",
			"status": "Active",
			"monitor": "",
			"routesLog": "0 AM | 0 PM",
			"routes": [],
			"pass": [],
			"record": [],
			"address": {
				"formatted": "1385 GILLOTT ST NW , PALM BAY 32907",
				"street": "",
				"state": "Florida",
				"city": "",
				"zip": "",
				"location": { "lat": 28.0268122, "lng": -80.7111979 }
			}
		},
		{
			"name": "Cecilia Forero ",
			"mdd": "",
			"bid": "M122203",
			"status": "Active",
			"monitor": "",
			"routesLog": "0 AM | 0 PM",
			"routes": [],
			"pass": [],
			"record": [],
			"address": {
				"formatted": "",
				"street": "",
				"state": "Florida",
				"city": "Brevard",
				"zip": "",
				"location": { "lat": "", "lng": "" }
			}
		},
		{
			"name": "Maria Roquelyn ",
			"mdd": "",
			"bid": "M122203",
			"status": "Active",
			"monitor": "",
			"routesLog": "0 AM | 0 PM",
			"routes": [],
			"pass": [],
			"record": [],
			"address": {
				"formatted": "5101 TORRESDALE AVE, PHILADELPHI 19124",
				"street": "",
				"state": "Pensilvania",
				"city": "Phyladelphia",
				"zip": "",
				"location": { "lat": 40.0126891, "lng": -75.0716448 }
			}
		},
		{
			"name": "Wilson Dominguez",
			"mdd": "",
			"bid": "M122203",
			"status": "Active",
			"monitor": "",
			"routesLog": "0 AM | 0 PM",
			"routes": [],
			"pass": [],
			"record": [],
			"address": {
				"formatted": "3053 ESSEX ROAD ALLENTOWN PA 18103",
				"street": "",
				"state": "Pensilvania",
				"city": "Allentown",
				"zip": "",
				"location": { "lat": 40.5640125, "lng": -75.4994847999999 }
			}
		},
		{
			"name": "Marcela Arenas",
			"mdd": 22177,
			"bid": "M122203",
			"status": "Active",
			"monitor": "",
			"routesLog": "0 AM | 0 PM",
			"routes": [],
			"pass": [],
			"record": [],
			"address": {
				"formatted": "8665 Rosalie Ct, Boynton Beach, Palm Beach, FL",
				"street": "",
				"state": "Florida",
				"city": "Palm Beach",
				"zip": "",
				"location": { "lat": 26.5475557, "lng": -80.1251278 }
			}
		},
		{
			"name": "Ana Maria Castro",
			"mdd": 22622,
			"bid": "M122203",
			"status": "Active",
			"monitor": "",
			"routesLog": "0 AM | 0 PM",
			"routes": [],
			"pass": [],
			"record": [],
			"address": {
				"formatted": "4718 ATWOOD DR, ORLANDO 32828",
				"street": "",
				"state": "Florida",
				"city": "Orange",
				"zip": "",
				"location": { "lat": 28.500314, "lng": -81.1376408 }
			}
		},
		{
			"name": "Maria Alejandra Rodriguez",
			"mdd": 22747,
			"bid": "M122203",
			"status": "Active",
			"monitor": "",
			"routesLog": "0 AM | 0 PM",
			"routes": [],
			"pass": [],
			"record": [],
			"address": {
				"formatted": "10748 HOBBIT CIR 32836, ORLANDO FL",
				"street": "",
				"state": "Florida",
				"city": "Orange",
				"zip": "",
				"location": { "lat": 28.4019928, "lng": -81.5340279999999 }
			}
		},
		{
			"name": "Kathryn Younes",
			"mdd": 22682,
			"bid": "M122203",
			"status": "Active",
			"monitor": "",
			"routesLog": "0 AM | 0 PM",
			"routes": [],
			"pass": [],
			"record": [],
			"address": {
				"formatted": "18301 SEAVIEW ST ORLANDO FL ",
				"street": "",
				"state": "Florida",
				"city": "Orange",
				"zip": "",
				"location": { "lat": 28.4592898, "lng": -81.1056866 }
			}
		},
		{
			"name": "Luz Dary Wilches",
			"mdd": 22564,
			"bid": "M122203",
			"status": "Active",
			"monitor": "",
			"routesLog": "0 AM | 0 PM",
			"routes": [],
			"pass": [],
			"record": [],
			"address": {
				"formatted": "4303 long key winter park 32792",
				"street": "",
				"state": "Florida",
				"city": "Orange",
				"zip": "",
				"location": { "lat": 28.6015316, "lng": -81.2897761 }
			}
		},
		{
			"name": "Daniela Barrios",
			"mdd": 23884,
			"bid": "M122203",
			"status": "Active",
			"monitor": "",
			"routesLog": "0 AM | 0 PM",
			"routes": [],
			"pass": [],
			"record": [],
			"address": {
				"formatted": "931 sw Mc Comkle Av Psl Fl 34953",
				"street": "",
				"state": "Florida",
				"city": "Port Saint Lucie",
				"zip": "",
				"location": { "lat": 27.2319748, "lng": -80.377674 }
			}
		},
		{
			"name": "Gracia Crespo",
			"mdd": 22683,
			"bid": "M122203",
			"status": "Active",
			"monitor": "",
			"routesLog": "0 AM | 0 PM",
			"routes": [],
			"pass": [],
			"record": [],
			"address": {
				"formatted": "931 sw Mc Comkle Av Psl Fl 34953",
				"street": "",
				"state": "Florida",
				"city": "Port Saint Lucie",
				"zip": "",
				"location": { "lat": 27.2319748, "lng": -80.377674 }
			}
		},
		{
			"name": "Oswlado Arrioja",
			"mdd": 23864,
			"bid": "M122203",
			"status": "Active",
			"monitor": "",
			"routesLog": "0 AM | 0 PM",
			"routes": [],
			"pass": [],
			"record": [],
			"address": {
				"formatted": "10600 Bastille Ln apto 308, Orlando Fl 32836",
				"street": "",
				"state": "Florida",
				"city": "Orange",
				"zip": "",
				"location": { "lat": 28.4057563, "lng": -81.5360297 }
			}
		},
		{
			"name": "Walter Cardone",
			"mdd": 22021,
			"bid": "M122203",
			"status": "Active",
			"monitor": "",
			"routesLog": "0 AM | 0 PM",
			"routes": [],
			"pass": [],
			"record": [],
			"address": {
				"formatted": "",
				"street": "",
				"state": "Florida",
				"city": "Miami",
				"zip": "",
				"location": { "lat": "", "lng": "" }
			}
		},
		{
			"name": "Juan Carlos Zuluaga",
			"mdd": 20930,
			"bid": "M122203",
			"status": "Active",
			"monitor": "",
			"routesLog": "0 AM | 0 PM",
			"routes": [],
			"pass": [],
			"record": [],
			"address": {
				"formatted": "18860 NW 86 ave apto 3502, Hialeah fl 33015",
				"street": "",
				"state": "Florida",
				"city": "Miami",
				"zip": "",
				"location": { "lat": 25.9446452, "lng": -80.3401159 }
			}
		},
		{
			"name": "Maritza Peralta",
			"mdd": 22852,
			"bid": "M122203",
			"status": "Active",
			"monitor": "",
			"routesLog": "0 AM | 0 PM",
			"routes": [],
			"pass": [],
			"record": [],
			"address": {
				"formatted": "140 Lake Meryl Drive apto 133, Golden Lakes 33411",
				"street": "",
				"state": "Florida",
				"city": "Palm Beach",
				"zip": "",
				"location": { "lat": 26.6970619, "lng": -80.1636048 }
			}
		},
		{
			"name": "Cruz Alberto Sosa Farfan",
			"mdd": "",
			"bid": "M122203",
			"status": "Active",
			"monitor": "",
			"routesLog": "0 AM | 0 PM",
			"routes": [],
			"pass": [],
			"record": [],
			"address": {
				"formatted": "8213 Claire Ann Dr Orlando Fl 32825",
				"street": "",
				"state": "Florida",
				"city": "Orange",
				"zip": "",
				"location": { "lat": 28.5506475, "lng": -81.2722299 }
			}
		},
		{
			"name": "Deyanira Josefina Hernandez De Marquina",
			"mdd": "",
			"bid": "M122203",
			"status": "Active",
			"monitor": "",
			"routesLog": "0 AM | 0 PM",
			"routes": [],
			"pass": [],
			"record": [],
			"address": {
				"formatted": "2221 polo club dr Kissimmee Fl 34741",
				"street": "",
				"state": "Florida",
				"city": "Orange",
				"zip": "",
				"location": { "lat": 28.3118712, "lng": -81.4373837 }
			}
		},
		{
			"name": "Carlos Leudo",
			"mdd": "",
			"bid": "M122203",
			"status": "Active",
			"monitor": "",
			"routesLog": "0 AM | 0 PM",
			"routes": [],
			"pass": [],
			"record": [],
			"address": {
				"formatted": "962 Benstation Lane, Lake Mary, 32746",
				"street": "",
				"state": "Florida",
				"city": "Orange",
				"zip": "",
				"location": { "lat": 28.7651768, "lng": -81.3576094 }
			}
		},
		{
			"name": "Olga Quintero",
			"mdd": 22732,
			"bid": "M122203",
			"status": "Active",
			"monitor": "",
			"routesLog": "0 AM | 0 PM",
			"routes": [],
			"pass": [],
			"record": [],
			"address": {
				"formatted": "2923 antique oaks circle",
				"street": "",
				"state": "Florida",
				"city": "Orange",
				"zip": "",
				"location": { "lat": 28.5939171, "lng": -81.30921 }
			}
		},
		{
			"name": "Sarah Elisa Guerrero",
			"mdd": 23355,
			"bid": "M122203",
			"status": "Active",
			"monitor": "",
			"routesLog": "0 AM | 0 PM",
			"routes": [],
			"pass": [],
			"record": [],
			"address": {
				"formatted": "668 Glenview Dr Winter Garden 34787",
				"street": "",
				"state": "Florida",
				"city": "Orange",
				"zip": "",
				"location": { "lat": 28.5822036, "lng": -81.5714464 }
			}
		},
		{
			"name": "Duffay Salazar Ortega",
			"mdd": 22716,
			"bid": "M122203",
			"status": "Active",
			"monitor": "",
			"routesLog": "0 AM | 0 PM",
			"routes": [],
			"pass": [],
			"record": [],
			"address": {
				"formatted": "13309 Summerton Dr, Orlando Fl 32824",
				"street": "",
				"state": "Florida",
				"city": "Orange",
				"zip": "",
				"location": { "lat": 28.364319, "lng": -81.3700159999999 }
			}
		},
		{
			"name": "Alex Vanney Lopera",
			"mdd": "",
			"bid": "M122203",
			"status": "Active",
			"monitor": "",
			"routesLog": "0 AM | 0 PM",
			"routes": [],
			"pass": [],
			"record": [],
			"address": {
				"formatted": "13220 Galicia Street Orlando Fl",
				"street": "",
				"state": "Florida",
				"city": "Orange",
				"zip": "",
				"location": { "lat": 28.3731065, "lng": -81.3625845999999 }
			}
		},
		{
			"name": "Dania Contreras",
			"mdd": 22860,
			"bid": "M122203",
			"status": "Active",
			"monitor": "",
			"routesLog": "0 AM | 0 PM",
			"routes": [],
			"pass": [],
			"record": [],
			"address": {
				"formatted": "23571 sw 107 pl, 23571",
				"street": "",
				"state": "Florida",
				"city": "Miami",
				"zip": "",
				"location": { "lat": 25.5484259, "lng": -80.3650557 }
			}
		},
		{
			"name": "Carlos Sanchez",
			"mdd": 22945,
			"bid": "M122203",
			"status": "Active",
			"monitor": "",
			"routesLog": "0 AM | 0 PM",
			"routes": [],
			"pass": [],
			"record": [],
			"address": {
				"formatted": "4990 nw 102 ave, Doral 33178",
				"street": "",
				"state": "Florida",
				"city": "Miami",
				"zip": "",
				"location": { "lat": 25.8183464, "lng": -80.3607916 }
			}
		},
		{
			"name": "Wilfredo Duardo",
			"mdd": 22681,
			"bid": "M122203",
			"status": "Active",
			"monitor": "",
			"routesLog": "0 AM | 0 PM",
			"routes": [],
			"pass": [],
			"record": [],
			"address": {
				"formatted": "9032 sw 142 ave Miami Fl, 33186",
				"street": "",
				"state": "Florida",
				"city": "Miami",
				"zip": "",
				"location": { "lat": 25.682518, "lng": -80.4263496 }
			}
		},
		{
			"name": "Ruben Felairan",
			"mdd": "",
			"bid": "M122203",
			"status": "Active",
			"monitor": "",
			"routesLog": "0 AM | 0 PM",
			"routes": [],
			"pass": [],
			"record": [],
			"address": {
				"formatted": "9882 namaste loop",
				"street": "",
				"state": "Florida",
				"city": "Orange",
				"zip": "",
				"location": { "lat": 28.4150883, "lng": -81.5297253999999 }
			}
		},
		{
			"name": "Evel Yandriel Fardales",
			"mdd": 24382,
			"bid": "M122203",
			"status": "Active",
			"monitor": "",
			"routesLog": "0 AM | 0 PM",
			"routes": [],
			"pass": [],
			"record": [],
			"address": {
				"formatted": "2361 Robin Rd, West Palm Beach, Palm Beach, FL",
				"street": "",
				"state": "Florida",
				"city": "Palm Beach",
				"zip": "",
				"location": { "lat": 26.6931943, "lng": -80.1007832 }
			}
		},
		{
			"name": "Erika Chirino",
			"mdd": 24023,
			"bid": "M122203",
			"status": "Active",
			"monitor": "",
			"routesLog": "0 AM | 0 PM",
			"routes": [],
			"pass": [],
			"record": [],
			"address": {
				"formatted": "2500 w taft vineland road Orlando Fl 32837 6:50 termina",
				"street": "",
				"state": "Florida",
				"city": "Orange",
				"zip": "",
				"location": { "lat": 28.4160426, "lng": -81.4133015 }
			}
		},
		{
			"name": "Zurma Zabala",
			"mdd": 23705,
			"bid": "M122203",
			"status": "Active",
			"monitor": "",
			"routesLog": "0 AM | 0 PM",
			"routes": [],
			"pass": [],
			"record": [],
			"address": {
				"formatted": "1112 Chelsea Dr Davenport Fl 33897",
				"street": "",
				"state": "Florida",
				"city": "Orange",
				"zip": "",
				"location": { "lat": 28.3176499, "lng": -81.6711389 }
			}
		},
		{
			"name": "Belen Gutierrez",
			"mdd": 23736,
			"bid": "M122203",
			"status": "Active",
			"monitor": "",
			"routesLog": "0 AM | 0 PM",
			"routes": [],
			"pass": [],
			"record": [],
			"address": {
				"formatted": "130 TOWN CENTER BLVD 3 205 . WINTER GARDEN",
				"street": "",
				"state": "Florida",
				"city": "Orange",
				"zip": "",
				"location": { "lat": 28.3495233, "lng": -81.6664182999999 }
			}
		},
		{
			"name": "Ediccson Redondo",
			"mdd": 23709,
			"bid": "M122203",
			"status": "Active",
			"monitor": "",
			"routesLog": "0 AM | 0 PM",
			"routes": [],
			"pass": [],
			"record": [],
			"address": {
				"formatted": "3849 Township Square Blvd",
				"street": "",
				"state": "Florida",
				"city": "Orange",
				"zip": "",
				"location": { "lat": 28.3678953, "lng": -81.4237972 }
			}
		},
		{
			"name": "Nelson Blanco",
			"mdd": 23714,
			"bid": "M122203",
			"status": "Active",
			"monitor": "Salvua Contreras",
			"routesLog": "0 AM | 0 PM",
			"routes": [],
			"pass": [],
			"record": [],
			"address": {
				"formatted": "1441 aguacate court Orlando Fl 32837",
				"street": "",
				"state": "Florida",
				"city": "Orange",
				"zip": "",
				"location": { "lat": 28.375092, "lng": -81.3964079 }
			}
		},
		{
			"name": "Liliana Sanchez",
			"mdd": 24315,
			"bid": "M122203",
			"status": "Active",
			"monitor": "",
			"routesLog": "0 AM | 0 PM",
			"routes": [],
			"pass": [],
			"record": [],
			"address": {
				"formatted": "13610 SW 178 Street",
				"street": "",
				"state": "Florida",
				"city": "Orange",
				"zip": "",
				"location": { "lat": 25.6017862, "lng": -80.4120694 }
			}
		}
	],
	"settings": {
		"Key": false,
		"BID": false,
		"Active": true,
		"State": false,
		"City": false,
		"Monitor": false
	}
}
